,Unnamed: 0,Unnamed: 0.1,access_code,access_days_time,id,owner_type_code,station_name,geocode_status,latitude,longitude,city,street_address,zip,ev_connector_types,ev_dc_fast_num,ev_level2_evse_num,ev_network,ev_other_evse,ev_renewable_source,GEOID,County,flag_port,geometry
0,0,2,public,24 hours daily; pay lot,1523,P,Los Angeles Convention Center,GPS,34.040539,-118.271387,Los Angeles,1201 S Figueroa St,90015,['J1772'],,12.0,Non-Networked,,,14000US06037224010,Los Angeles County,level2,POINT (34.040539 -118.271387)
1,1,9,public,24 hours daily,1583,SG,California Air Resources Board,GPS,34.06872,-118.064,El Monte,9530 Telstar Ave,91731,['J1772'],,3.0,Non-Networked,,,14000US06037433103,Los Angeles County,level2,POINT (34.06872 -118.064)
2,2,11,public,24 hours daily,6355,P,Scripps Green Hospital,GPS,32.89947,-117.243,La Jolla,10666 N Torrey Pines Rd,92037,['J1772'],,1.0,Non-Networked,,,14000US06073008312,San Diego County,level2,POINT (32.89947 -117.243)
3,3,12,public,Dealership business hours,6405,P,Galpin Motors,200-9,34.221665,-118.468371,Sepulveda,15421 Roscoe Blvd,91343,['J1772'],,2.0,Non-Networked,,,14000US06037117408,Los Angeles County,level2,POINT (34.221665 -118.468371)
4,4,13,public,6am-12am daily,6425,P,Galleria at Tyler,GPS,33.909914,-117.459053,Riverside,1299 Galleria at Tyler,92503,['J1772'],,4.0,Non-Networked,,,14000US06065031601,Riverside County,level2,POINT (33.909914 -117.459053)
5,5,14,public,24 hours daily; pay lot,6505,LG,City of Pasadena - Holly Street Garage,200-8,34.14762,-118.147111,Pasadena,150 E Holly St,91103,['J1772'],,16.0,Non-Networked,,,14000US06037461902,Los Angeles County,level2,POINT (34.14762 -118.147111)
6,6,15,public,24 hours daily; pay lot,6506,LG,City of Pasadena - De Lacey Garage,GPS,34.145138,-118.152655,Pasadena,45 De Lacey Ave,91105,['J1772'],,2.0,Non-Networked,,,14000US06037463700,Los Angeles County,level2,POINT (34.145138 -118.152655)
7,7,16,public,24 hours daily; pay lot,6507,LG,City of Pasadena - Schoolhouse Garage,200-8,34.145119,-118.150133,Pasadena,33 E Green St,91105,['J1772'],,3.0,Non-Networked,,,14000US06037463602,Los Angeles County,level2,POINT (34.145119 -118.150133)
8,8,17,public,24 hours daily; for guest use only; valet fee,6508,P,Pasadena Hilton,200-9,34.142973,-118.140553,Pasadena,150 S Los Robles,91101,['J1772'],,4.0,Non-Networked,,,14000US06037463601,Los Angeles County,level2,POINT (34.142973 -118.140553)
9,10,19,public,24 hours daily; pay lot; see valet for access,7172,P,Hyatt Regency Long Beach,GPS,33.7637,-118.192,Long Beach,200 S Pine Ave,90802,['J1772'],,1.0,Non-Networked,,,14000US06037576001,Los Angeles County,level2,POINT (33.7637 -118.192)
10,11,20,public,24 hours daily; pay lot,7184,LG,Los Angeles International Airport (LAX) - Lot 6,GPS,33.94325,-118.403342,Los Angeles,1 World Way,90045,['J1772'],,20.0,Non-Networked,,,14000US06037980028,Los Angeles County,level2,POINT (33.94325 -118.403342)
11,12,21,public,6am-12am daily,7192,P,Northride Fashion Center,GPS,34.241116,-118.556708,Northridge,9301 Tampa Ave,91324,['J1772'],,2.0,Volta,,SOLAR,14000US06037113301,Los Angeles County,level2,POINT (34.241116 -118.556708)
12,13,22,public,24 hours daily; guest use only,7194,P,Ontario Airport Hotel and Conference Center,GPS,34.07122,-117.575,Ontario,700 N Haven Ave,91764,['J1772'],,1.0,Non-Networked,,,14000US06071002109,San Bernardino County,level2,POINT (34.07122 -117.575)
13,14,23,public,24 hours daily; guest use only,7195,P,Courtyard Marriott - Oxnard Ventura,GPS,34.228315,-119.170865,Oxnard,600 E Esplanade Dr,93030,['J1772'],,1.0,Non-Networked,,,14000US06111009200,Ventura County,level2,POINT (34.228315 -119.170865)
14,15,24,public,24 hours daily; pay lot; priority given to registered guests,7196,P,Hilton - Palm Springs,GPS,33.824004,-116.543589,Palm Springs,400 E Tahquitz Canyon Way,92262,['J1772'],,2.0,Non-Networked,,,14000US06065941400,Riverside County,level2,POINT (33.824004 -116.543589)
15,16,25,public,Dealership business hours,7197,P,East Bay Mini,200-8,37.700187,-121.876172,Pleasanton,4340 Rosewood Dr,94588,['J1772'],,2.0,Non-Networked,,,14000US06001450744,Alameda County,level2,POINT (37.700187 -121.876172)
16,17,26,public,8am-4:30pm M-F,7206,P,Inland Empire Foods,GPS,34.0189,-117.38,Riverside,5425 Wilson St,92509,['J1772'],,3.0,Non-Networked,,,14000US06065040101,Riverside County,level2,POINT (34.0189 -117.38)
17,18,27,public,24 hours daily; pay lot,7212,P,Sacramento International Airport - Daily A Lot,GPS,38.69005,-121.58889,Sacramento,Lindbergh Dr,95837,['J1772'],,4.0,Non-Networked,1 SP Inductive,,14000US06067007101,Sacramento County,level2,POINT (38.69005 -121.58889)
18,19,28,public,24 hours daily,7229,LG,City of Santa Monica - Airport,GPS,34.017081,-118.44704,Santa Monica,3223 Donald Douglas Loop,90405,['J1772'],,2.0,Non-Networked,,SOLAR,14000US06037702300,Los Angeles County,level2,POINT (34.017081 -118.44704)
19,20,29,public,24 hours daily; pay lot,7230,LG,City of Santa Monica - Pier,200-9,34.010021,-118.49583,Santa Monica,200 Santa Monica Pier,90405,['J1772'],,3.0,Non-Networked,,,14000US06037701902,Los Angeles County,level2,POINT (34.010021 -118.49583)
20,21,30,public,6am-12am daily,7233,P,Westfield Fashion Square,GPS,34.156839,-118.434454,Sherman Oaks,14006 Riverside Dr,91423,['J1772'],,4.0,Volta,,,14000US06037128704,Los Angeles County,level2,POINT (34.156839 -118.434454)
21,22,31,public,24 hours daily; pay lot; see valet for access; Drivers must bring their own J1772 cordset for Level 1 charging,7242,P,Universal City Hilton,200-8,34.138717,-118.35904,Universal City,333 Universal Terrace Pkwy,91608,['NEMA520'],,,Non-Networked,,,14000US06037143700,Los Angeles County,dc,POINT (34.138717 -118.35904)
22,23,32,public,24 hours daily,7245,P,Van Nuys Amtrak/Metrolink Station,200-8,34.21108,-118.448704,Van Nuys,7724 Van Nuys Blvd,91405,['J1772'],,4.0,EV Connect,,,14000US06037127210,Los Angeles County,level2,POINT (34.21108 -118.448704)
23,24,33,public,24 hours daily,7250,T,Office Max - Home Depot,200-8,33.94756,-118.153806,Downey,7075 Firestone Blvd,90241,['J1772'],,4.0,Non-Networked,,,14000US06037551401,Los Angeles County,level2,POINT (33.94756 -118.153806)
24,25,34,public,24 hours daily; pay lot; see valet for access,7280,P,Hyatt at Fisherman's Wharf,GPS,37.80619,-122.4152,San Francisco,555 N Point St,94133,['J1772'],,1.0,Non-Networked,,,14000US06075010101,San Francisco County,level2,POINT (37.80619 -122.4152)
25,26,35,public,24 hours daily,7286,P,Arden Fair Mall,200-8,38.599693,-121.427045,Sacramento,1689 Arden Way,95815,['J1772'],,4.0,Non-Networked,,,14000US06067005502,Sacramento County,level2,POINT (38.599693 -121.427045)
26,28,37,public,24 hours daily,21358,P,Palace Hotel,GPS,37.78881,-122.401,San Francisco,2 New Montgomery St,94105,['J1772'],,1.0,Non-Networked,,,14000US06075061501,San Francisco County,level2,POINT (37.78881 -122.401)
27,29,38,public,24 hours daily; for guest use only; see valet for access,21360,P,Mark Hopkins InterContinental Hotel,200-8,37.791791,-122.411265,San Francisco,999 California St,94108,['J1772'],,1.0,Non-Networked,,,14000US06075011200,San Francisco County,level2,POINT (37.791791 -122.411265)
28,30,39,public,24 hours daily; for guest use only; see valet for access,21368,P,Hotel Sofitel,GPS,34.076264,-118.377527,Los Angeles,8555 Beverly Blvd,90048,['J1772'],,2.0,Non-Networked,,,14000US06037194500,Los Angeles County,level2,POINT (34.076264 -118.377527)
29,31,40,public,"Garage business hours; pay lot; keypad activated, instructions on EVSE",21374,P,Music Center Parking - Level 2,GPS,34.057657,-118.24789,Los Angeles,135 N Grand Ave,90012,['J1772'],,3.0,Non-Networked,,,14000US06037207400,Los Angeles County,level2,POINT (34.057657 -118.24789)
30,32,41,public,24 hours daily,21383,P,Balboa Golf Course,200-8,34.169242,-118.497212,Encino,16821 Burbank Blvd,91436,['J1772'],,1.0,Non-Networked,,,14000US06037980024,Los Angeles County,level2,POINT (34.169242 -118.497212)
31,33,42,public,24 hours daily; parking permit required,21395,P,California State University - Northridge,GPS,34.248959,-118.523887,Northridge,18111 Nordhoff St,91330,['J1772'],,2.0,Non-Networked,,,14000US06037115103,Los Angeles County,level2,POINT (34.248959 -118.523887)
32,34,43,public,24 hours daily; parking permit required,21396,P,California State University - Northridge,GPS,34.241687,-118.528543,Northridge,18111 Nordhoff St,91330,['J1772'],,2.0,Non-Networked,,,14000US06037115103,Los Angeles County,level2,POINT (34.241687 -118.528543)
33,35,44,public,24 hours daily; parking permit required,21397,P,California State University - Northridge,GPS,34.236853,-118.532588,Northridge,18111 Nordhoff St,91330,['J1772'],,4.0,Non-Networked,,,14000US06037115103,Los Angeles County,level2,POINT (34.236853 -118.532588)
34,36,45,public,24 hours daily,21398,P,Northridge Metrolink Station,200-8,34.229277,-118.544827,Northridge,8775 Wilbur Ave,91324,['J1772'],,4.0,EV Connect,,,14000US06037115404,Los Angeles County,level2,POINT (34.229277 -118.544827)
35,37,46,public,8am-5pm daily,21402,P,Los Angeles Harbor Department Headquarters,200-9,33.740758,-118.28192,San Pedro,425 S Palos Verdes St,90731,['J1772'],,4.0,Non-Networked,,,14000US06037296220,Los Angeles County,level2,POINT (33.740758 -118.28192)
36,38,47,public,24 hours daily,21414,P,Sylmar Metrolink Station,GPS,34.2924134,-118.4497914,San Fernando,Village Way Dr,91342,['J1772'],,4.0,EV Connect,,,14000US06037107020,Los Angeles County,level2,POINT (34.2924134 -118.4497914)
37,39,48,public,Garage business hours; pay lot; Drivers must bring their own J1772 cordset for Level 1 charging,21419,P,Getty Center,200-9,34.077588,-118.474585,Los Angeles,1200 Getty Center Dr,90049,"['J1772', 'NEMA520']",,16.0,Non-Networked,,,14000US06037262302,Los Angeles County,level2,POINT (34.077588 -118.474585)
38,40,49,public,24 hours daily,21450,P,Los Angeles County - Arboretum,GPS,34.145528,-118.050548,Arcadia,301 N Baldwin Ave,91007,['J1772'],,3.0,POWERFLEX,,,14000US06037430701,Los Angeles County,level2,POINT (34.145528 -118.050548)
39,41,50,public,5am-2am daily,21498,LG,City of Glendora - City Hall,GPS,34.13556,-117.864,Glendora,114 S Vista Bonita Ave,91741,['J1772'],,3.0,Non-Networked,,,14000US06037401102,Los Angeles County,level2,POINT (34.13556 -117.864)
40,42,51,public,24 hours daily; guest use only,21524,P,DoubleTree Hotel - Los Angeles - Westside,GPS,33.9826,-118.3966,Culver City,6161 Centinela Ave,90230,['J1772'],,2.0,Non-Networked,,,14000US06037703003,Los Angeles County,level2,POINT (33.9826 -118.3966)
41,43,52,public,24 hours daily,21525,P,Helms Bakery Building,200-9,34.029971,-118.385231,Los Angeles,8800 Venice Blvd,90034,['J1772'],,6.0,Non-Networked,,,14000US06037270200,Los Angeles County,level2,POINT (34.029971 -118.385231)
42,44,53,public,Business hours,21535,P,Westfield MainPlace Mall,GPS,33.777054,-117.870566,Santa Ana,2800 N Main St,92705,['J1772'],,6.0,Non-Networked,,,14000US06059076002,Orange County,level2,POINT (33.777054 -117.870566)
43,45,54,public,24 hours daily; parking pass required or day pass available for purchase,21559,P,California State University - Channel Islands,GPS,34.16657601660278,-119.0458546627045,Camarillo,1 University Dr,93012,['J1772'],,5.0,Non-Networked,,,14000US06111005700,Ventura County,level2,POINT (34.16657601660278 -119.0458546627045)
44,46,55,public,Garage business hours; 4 hour parking limit,21561,LG,Brea Downtown Parking,200-8,33.919899,-117.898618,Brea,101 S Brea Blvd,92821,['J1772'],,4.0,Non-Networked,,,14000US06059001503,Orange County,level2,POINT (33.919899 -117.898618)
45,47,56,public,24 hours daily; Drivers must bring their own J1772 cordset for Level 1 charging,21565,P,Home Depot,GPS,34.192178,-118.934793,Newbury Park,2745 Teller Rd,91320,"['J1772', 'NEMA515']",,2.0,Non-Networked,,,14000US06111006102,Ventura County,level2,POINT (34.192178 -118.934793)
46,48,57,public,8am-5pm daily,21566,P,Lake Casitas Municipal Water District - Recreational Area,GPS,34.418322,-119.3368,Oak View,Casitas Pass Rd & Baldwin Rd,93022,['J1772'],,1.0,Non-Networked,,,14000US06111009500,Ventura County,level2,POINT (34.418322 -119.3368)
47,49,58,public,24 hours daily,21569,P,San Dimas Park & Ride,GPS,34.105275,-117.809208,San Dimas,205 S San Dimas Ave,91773,['J1772'],,2.0,Non-Networked,,,14000US06037401311,Los Angeles County,level2,POINT (34.105275 -117.809208)
48,50,59,public,24 hours daily; pay lot,21594,LG,City of Pasadena - El Molino Lot,GPS,34.147709,-118.136621,Pasadena,100 N El Molino Ave,91101,['J1772'],,2.0,Non-Networked,,,14000US06037462202,Los Angeles County,level2,POINT (34.147709 -118.136621)
49,51,60,public,8am-5pm daily,21606,LG,Ventura County Government Center,GPS,34.267352,-119.2124,Ventura,800 S Victoria Ave,93009,['J1772'],,3.0,Non-Networked,,,14000US06111001510,Ventura County,level2,POINT (34.267352 -119.2124)
50,52,61,public,8am-5pm daily,21607,LG,Ventura County Air Pollution Control District,GPS,34.268756,-119.2154,Ventura,669 County Square Dr,93003,['J1772'],,3.0,Non-Networked,,,14000US06111001508,Ventura County,level2,POINT (34.268756 -119.2154)
51,53,62,public,24 hours daily,21608,P,Pacific View Mall,GPS,34.268,-119.2492,Ventura,3295 E Main St,93003,['J1772'],,2.0,Non-Networked,1 SP Inductive,,14000US06111002700,Ventura County,level2,POINT (34.268 -119.2492)
52,54,66,public,24 hours daily,21673,SG,University of California - Davis Extension - Lot 80,GPS,38.539336,-121.732405,Davis,1441 Research Park Dr,95616,"['J1772', 'NEMA520']",,3.0,Non-Networked,,,14000US06113010608,Yolo County,level2,POINT (38.539336 -121.732405)
53,55,68,public,24 hours daily,21794,P,Soquel & Front Garage,200-9,36.973393,-122.024849,Santa Cruz,601 Front St,95061,['J1772'],,5.0,Non-Networked,,,14000US06087100700,Santa Cruz County,level2,POINT (36.973393 -122.024849)
54,56,70,public,24 hours daily,25491,LG,Fair Oaks - Orangevale - Community Library,GPS,38.66292,-121.2634,Fair Oaks,11601 Fair Oaks Blvd,95628,['J1772'],,2.0,Non-Networked,,,14000US06067008008,Sacramento County,level2,POINT (38.66292 -121.2634)
55,57,71,public,24 hours daily; pay lot; visitor and student use only; Drivers must bring their own J1772 cordset for Level 1 charging,25494,P,Sutter Galleria Mall - University of California - Davis Extension,200-9,38.57277,-121.467902,Sacramento,2901 K St,95816,"['J1772', 'NEMA520']",,2.0,Non-Networked,,,14000US06067001400,Sacramento County,level2,POINT (38.57277 -121.467902)
56,58,72,public,24 hours daily,25497,LG,North Highlands Library,GPS,38.7042,-121.365,Antelope,4235 Antelope Rd,95843,['J1772'],,1.0,Non-Networked,,,14000US06067007427,Sacramento County,level2,POINT (38.7042 -121.365)
57,59,74,public,24 hours daily,25501,P,University of California - Davis - Medical Center,GPS,38.552483,-121.4487,Sacramento,4860 Y St,95817,['J1772'],,2.0,Non-Networked,,,14000US06067001702,Sacramento County,level2,POINT (38.552483 -121.4487)
58,60,75,public,24 hours daily,25502,LG,City of Sacramento - Belle Cooledge Library,GPS,38.524403,-121.5112,Sacramento,5600 S Land Park Dr,95822,['J1772'],,2.0,Non-Networked,,,14000US06067003300,Sacramento County,level2,POINT (38.524403 -121.5112)
59,61,76,public,Lot business hours; overnight parking prohibited,25507,LG,Mosquito Road Park and Ride,GPS,38.73323,-120.78962,Placerville,Mosquito Rd & Clay St,95667,['J1772'],,2.0,Non-Networked,,,14000US06017031100,El Dorado County,level2,POINT (38.73323 -120.78962)
60,62,77,public,24 hours daily,25511,LG,City of Vacaville - Cultural Center,GPS,38.356027,-121.9628,Vacaville,1000 Ulatis Dr,95687,['J1772'],,1.0,Non-Networked,1 SP Inductive,,14000US06095253105,Solano County,level2,POINT (38.356027 -121.9628)
61,63,78,public,24 hours daily,25515,LG,City of Vacaville - Regional Transport Center,GPS,38.35172,-121.987,Vacaville,190 Hickory Ln,95688,"['J1772', 'TESLA']",,3.0,Non-Networked,1 SP Inductive,,14000US06095253101,Solano County,level2,POINT (38.35172 -121.987)
62,64,79,public,24 hours daily,25516,LG,Office of Housing & Redevelopment,200-9,38.356907,-122.001886,Vacaville,40 Eldridge Ave,95688,['J1772'],,1.0,Non-Networked,1 SP Inductive,,14000US06095253203,Solano County,level2,POINT (38.356907 -122.001886)
63,65,80,public,24 hours daily,25517,LG,KUIC Radio - Parking Lot,GPS,38.355867,-121.9862,Vacaville,500 Catherine St,95688,['J1772'],,1.0,Non-Networked,1 SP Inductive,,14000US06095253101,Solano County,level2,POINT (38.355867 -121.9862)
64,66,81,public,Primarily government use,25518,LG,City of Vacaville - City Hall,200-9,38.351758,-121.994475,Vacaville,650 Merchant St,95688,['J1772'],,10.0,Non-Networked,3 SP Inductive,,14000US06095253101,Solano County,level2,POINT (38.351758 -121.994475)
65,67,82,public,24 hours daily,25519,LG,Citrus Heights City Hall,GPS,38.682605,-121.297614,Citrus Heights,6360 Fountain Square Dr,95621,['J1772'],,4.0,Non-Networked,1 SP Inductive,,14000US06067008136,Sacramento County,level2,POINT (38.682605 -121.297614)
66,68,83,public,24 hours daily; Drivers must bring their own J1772 cordset for Level 1 charging,25520,LG,Pitt School Plaza,200-9,38.457369,-121.842567,Dixon,1440 Ary Ln,95620,['NEMA520'],,,Non-Networked,1 SP Inductive  1 Tesla Conductive,,14000US06095253404,Solano County,dc,POINT (38.457369 -121.842567)
67,69,84,public,24 hours daily,25522,LG,El Dorado County Government Center,GPS,38.72799,-120.828,Placerville,2850 Fairlane Ct,95667,['J1772'],,3.0,Non-Networked,,,14000US06017031000,El Dorado County,level2,POINT (38.72799 -120.828)
68,70,85,public,24 hours daily,25523,LG,El Dorado Transit Park & Ride,GPS,38.6476,-121.067,El Dorado Hills,4640 Post St,95762,['J1772'],,2.0,Non-Networked,,,14000US06017030711,El Dorado County,level2,POINT (38.6476 -121.067)
69,71,87,public,8am-10pm daily,25527,P,CVS Pharmacy,GPS,38.74453,-121.17,Granite Bay,8455 Auburn-Folsom Rd,95746,['J1772'],,1.0,Non-Networked,,,14000US06061020601,Placer County,level2,POINT (38.74453 -121.17)
70,72,88,public,24 hours daily,25610,P,Carmichael Library,GPS,38.618066,-121.334337,Carmichael,5605 Marconi Ave,95608,['J1772'],,1.0,Non-Networked,,,14000US06067007701,Sacramento County,level2,POINT (38.618066 -121.334337)
71,73,89,public,24 hours daily,27302,LG,Rio Vista City Hall,GPS,38.15485,-121.69,Rio Vista,1 Main St,94571,['J1772'],,1.0,Non-Networked,,,14000US06095253502,Solano County,level2,POINT (38.15485 -121.69)
72,74,90,public,24 hours daily,27328,LG,Fairfield City Hall,200-8,38.25281,-122.044229,Fairfield,1000 Webster St,94533,['J1772'],,2.0,Non-Networked,,,14000US06095252501,Solano County,level2,POINT (38.25281 -122.044229)
73,75,91,public,24 hours daily,27329,LG,Solano Community College,GPS,38.23723,-122.123,Fairfield,4000 Suisun Valley Rd,94534,['J1772'],,3.0,Non-Networked,1 SP Inductive,,14000US06095252305,Solano County,level2,POINT (38.23723 -122.123)
74,77,93,public,24 hours daily; pay lot,28007,LG,Los Angeles International Airport (LAX) - Lot 1,GPS,33.944761,-118.399767,Los Angeles,1 World Way,90045,['J1772'],,20.0,Non-Networked,,,14000US06037980028,Los Angeles County,level2,POINT (33.944761 -118.399767)
75,78,102,public,24 hours daily,33544,LG,City of Ukiah - Public Parking Lot,GPS,39.15,-123.2091,Ukiah,N Oak St & W Standley St,95482,['J1772'],,1.0,Non-Networked,1 SP Inductive,,14000US06045011600,Mendocino County,level2,POINT (39.15 -123.2091)
76,79,103,public,24 hours daily; Drivers must bring their own J1772 cordset for Level 1 charging,33545,P,Nut Tree Village,200-9,38.368755,-121.961192,Vacaville,1651 E Monte Vista Ave,95688,"['J1772', 'NEMA515']",,1.0,Non-Networked,1 SP Inductive,,14000US06095252904,Solano County,level2,POINT (38.368755 -121.961192)
77,80,104,public,24 hours daily,33550,LG,Placer County Community Development Resource Center,GPS,38.9412492,-121.1054805,Auburn,3091 County Center Dr,95603,['J1772'],,3.0,ChargePoint Network,,,14000US06061021501,Placer County,level2,POINT (38.9412492 -121.1054805)
78,81,105,public,6am-2am daily,33555,P,4th and G Plaza Public Parking Garage,GPS,38.54643,-121.7388,Davis,817 4th St,95616,['J1772'],,2.0,Non-Networked,,,14000US06113010701,Yolo County,level2,POINT (38.54643 -121.7388)
79,82,106,public,24 hours daily,33556,P,Davis Amtrak Station,GPS,38.5443,-121.738,Davis,840 2nd St,95616,['J1772'],,2.0,Non-Networked,1 SP Inductive,,14000US06113010701,Yolo County,level2,POINT (38.5443 -121.738)
80,83,107,public,24 hours daily; pay lot; permit required 7am-10pm M-F; Drivers must bring their own J1772 cordset for Level 1 charging,33557,P,University of California - Davis - Quad Parking Structure,GPS,38.544538,-121.749713,Davis,6 Howard Way,95616,"['J1772', 'NEMA520']",,7.0,Non-Networked,,,14000US06113010501,Yolo County,level2,POINT (38.544538 -121.749713)
81,84,108,public,24 hours daily,33558,P,University Covenant Church,GPS,38.55755,-121.6947,Davis,315 Mace Blvd,95618,['J1772'],,1.0,Non-Networked,,,14000US06113010605,Yolo County,level2,POINT (38.55755 -121.6947)
82,85,109,public,Mall business hours,33564,P,Lakewood Center Mall,GPS,33.84788,-118.13889,Lakewood,4500 Silva St,90712,['J1772'],,2.0,Non-Networked,,,14000US06037570800,Los Angeles County,level2,POINT (33.84788 -118.13889)
83,86,110,public,24 hours daily; pay lot,33690,P,Golden Gate Ferry Terminal,GPS,37.94495,-122.5096,Larkspur,101 E Sir Francis Drake Blvd,94939,['J1772'],,1.0,Non-Networked,1 SP Inductive,,14000US06041121200,Marin County,level2,POINT (37.94495 -122.5096)
84,87,111,public,24 hours daily; pay lot,33695,LG,Oakland International Airport - Daily Lot,GPS,37.7136,-122.2087,Oakland,1 Airport Dr,94621,['J1772'],,2.0,Non-Networked,,,14000US06001409000,Alameda County,level2,POINT (37.7136 -122.2087)
85,88,112,public,24 hours daily,35146,LG,Fairfield Transportation Center,GPS,38.2482,-122.0678,Fairfield,2000 Cadenasso Dr,94533,['J1772'],,2.0,Non-Networked,2 Tesla Conductive,,14000US06095252402,Solano County,level2,POINT (38.2482 -122.0678)
86,89,114,public,24 hours daily,35560,P,Home Depot,200-9,35.249929,-120.689683,San Luis Obispo,1551 Froom Ranch Way,93405,['J1772'],,2.0,Non-Networked,,,14000US06079011300,San Luis Obispo County,level2,POINT (35.249929 -120.689683)
87,90,115,public,24 hours daily,35561,P,San Luis Obispo Promenade - Bed Bath & Beyond,GPS,35.25982,-120.676,San Luis Obispo,319 Madonna Rd,93401,['J1772'],,4.0,Non-Networked,,,14000US06079011202,San Luis Obispo County,level2,POINT (35.25982 -120.676)
88,91,116,public,Dealership business hours; priority for customer use,38379,P,Toyota of Santa Monica,200-9,34.019875,-118.49151,Santa Monica,801 Santa Monica Blvd,90401,['J1772'],,3.0,Non-Networked,,,14000US06037701502,Los Angeles County,level2,POINT (34.019875 -118.49151)
89,92,117,public,24 hours daily; pay lot,38518,P,Beach & Hyde Garage,200-8,37.806798,-122.419488,San Francisco,655 Beach St,94109,['J1772'],,5.0,Non-Networked,,,14000US06075010202,San Francisco County,level2,POINT (37.806798 -122.419488)
90,93,118,public,24 hours daily; pay lot,38521,LG,City of Santa Monica - Civic Parking Garage,GPS,34.010528,-118.4898,Santa Monica,333 Civic Center Dr,90401,"['CHADEMO', 'J1772']",2.0,12.0,Non-Networked,,SOLAR,14000US06037701902,Los Angeles County,both,POINT (34.010528 -118.4898)
91,94,119,public,24 hours daily; guests may request use of the chargers when making hotel reservations,39314,P,Super 8 - Ukiah,GPS,39.1458,-123.198497,Ukiah,693 S Orchard Ave,95482,['J1772'],,1.0,Non-Networked,,,14000US06045011502,Mendocino County,level2,POINT (39.1458 -123.198497)
92,95,120,public,Dealership business hours,39870,P,Antioch Nissan,200-9,38.007799,-121.832042,Antioch,1831 Auto Center Dr,94509,"['CHADEMO', 'J1772', 'J1772COMBO']",1.0,1.0,Non-Networked,,,14000US06013305000,Contra Costa County,both,POINT (38.007799 -121.832042)
93,96,121,public,Dealership business hours,39871,P,Nissan of Bakersfield,200-9,35.310723,-119.035324,Bakersfield,2800 Pacheco Rd,93313,"['CHADEMO', 'J1772', 'J1772COMBO']",1.0,3.0,Non-Networked,,,14000US06029003112,Kern County,both,POINT (35.310723 -119.035324)
94,97,122,public,Dealership business hours,39872,P,Buena Park Nissan,200-9,33.865497,-117.995215,Buena Park,6501 Auto Center Dr,90621,"['CHADEMO', 'J1772', 'J1772COMBO']",1.0,3.0,Non-Networked,,,14000US06059110603,Orange County,both,POINT (33.865497 -117.995215)
95,98,123,public,Dealership business hours,39873,P,Carson Nissan,200-9,33.824968,-118.245675,Carson,1505 E 223rd St,90745,"['CHADEMO', 'J1772', 'J1772COMBO']",1.0,2.0,Non-Networked,,,14000US06037543903,Los Angeles County,both,POINT (33.824968 -118.245675)
96,99,124,public,Dealership business hours,39874,P,Palm Springs Nissan,GPS,33.78414,-116.471,Cathedral City,68177 Kyle Rd,92234,"['CHADEMO', 'J1772']",1.0,1.0,Non-Networked,,,14000US06065045000,Riverside County,both,POINT (33.78414 -116.471)
97,100,125,public,Dealership business hours,39875,P,Cerritos Nissan,200-9,33.861544,-118.100471,Cerritos,18707 Studebaker Rd,90703,"['CHADEMO', 'J1772', 'J1772COMBO']",1.0,1.0,Non-Networked,,,14000US06037554521,Los Angeles County,both,POINT (33.861544 -118.100471)
98,101,126,public,Dealership business hours,39876,P,Chico Nissan,200-9,39.756332,-121.843715,Chico,575 Manzanita Ave,95926,"['CHADEMO', 'J1772', 'J1772COMBO']",1.0,3.0,Non-Networked,,,14000US06007000102,Butte County,both,POINT (39.756332 -121.843715)
99,102,127,public,Dealership business hours,39877,P,Puente Hills Nissan,GPS,33.997621,-117.928216,City of Industry,17320 E Gale Ave,91748,"['CHADEMO', 'J1772', 'J1772COMBO']",1.0,2.0,Non-Networked,,,14000US06037980035,Los Angeles County,both,POINT (33.997621 -117.928216)
100,103,128,public,Dealership business hours,39878,P,Lithia Nissan - Clovis,GPS,36.836818,-119.717629,Clovis,370 W Herndon Ave,93612,['J1772'],,1.0,Non-Networked,,,14000US06019005606,Fresno County,level2,POINT (36.836818 -119.717629)
101,104,129,public,Dealership business hours,39879,P,Nissan of Serramonte,200-8,37.671267,-122.463541,Colma,1500 Collins Ave,94014,"['CHADEMO', 'J1772']",1.0,1.0,Non-Networked,,,14000US06081601601,San Mateo County,both,POINT (37.671267 -122.463541)
102,105,130,public,Dealership business hours,39880,P,Autocom Nissan - Concord,200-8,37.980192,-122.050128,Concord,1290 Concord Ave,94520,['J1772'],,1.0,Non-Networked,,,14000US06013327001,Contra Costa County,level2,POINT (37.980192 -122.050128)
103,106,131,public,Dealership business hours,39881,P,Larry H Miller Nissan,200-9,33.88309,-117.615292,Corona,2575 Wardlow Rd,92882,"['CHADEMO', 'J1772']",1.0,2.0,Non-Networked,,,14000US06065041500,Riverside County,both,POINT (33.88309 -117.615292)
104,107,132,public,Dealership business hours,39882,P,Orange Coast Nissan,200-9,33.675397,-117.918684,Costa Mesa,2850 Harbor Blvd,92626,"['CHADEMO', 'J1772', 'J1772COMBO']",1.0,2.0,Non-Networked,,,14000US06059063902,Orange County,both,POINT (33.675397 -117.918684)
105,108,133,public,Dealership business hours,39883,P,Hanlees Nissan,200-9,38.55252,-121.691555,Davis,5009 Chiles Rd,95618,"['CHADEMO', 'J1772']",1.0,1.0,Non-Networked,,,14000US06113010401,Yolo County,both,POINT (38.55252 -121.691555)
106,109,134,public,Dealership business hours,39884,P,Downey Nissan,200-8,33.9473,-118.151166,Downey,7321 Firestone Blvd,90241,"['J1772', 'J1772COMBO']",2.0,4.0,Non-Networked,,,14000US06037550802,Los Angeles County,both,POINT (33.9473 -118.151166)
107,110,135,public,Dealership business hours,39885,P,Nissan of Duarte,GPS,34.136553,-117.975944,Duarte,1434 Buena Vista St,91010,['J1772'],,1.0,Non-Networked,,,14000US06037430101,Los Angeles County,level2,POINT (34.136553 -117.975944)
108,111,136,public,Dealership business hours,39886,P,Mossy Nissan - El Cajon,200-9,32.795896,-116.976156,El Cajon,1170 W Main St,92020,['J1772'],,1.0,Non-Networked,,,14000US06073016202,San Diego County,level2,POINT (32.795896 -116.976156)
109,112,137,public,Dealership business hours,39887,P,Ross Nissan El Monte,200-9,34.069536,-118.026911,El Monte,3428 N Peck Rd,91731,"['CHADEMO', 'J1772', 'J1772COMBO']",1.0,2.0,Non-Networked,,,14000US06037433304,Los Angeles County,both,POINT (34.069536 -118.026911)
110,113,138,public,Dealership business hours,39888,P,Nissan of Elk Grove,200-9,38.402217,-121.385527,Elk Grove,8590 Laguna Grove Dr,95757,"['CHADEMO', 'J1772']",2.0,4.0,Non-Networked,,,14000US06067009650,Sacramento County,both,POINT (38.402217 -121.385527)
111,114,139,public,Dealership business hours,39889,P,Mossy Nissan - Escondido,200-9,33.116492,-117.106837,Escondido,1546 Auto Park Way,92029,['J1772'],,1.0,Non-Networked,,,14000US06073020313,San Diego County,level2,POINT (33.116492 -117.106837)
112,115,140,public,Dealership business hours,39890,P,McCrea Nissan,200-9,40.800562,-124.164405,Eureka,601 7th St,95501,['J1772'],,1.0,Non-Networked,,,14000US06023000100,Humboldt County,level2,POINT (40.800562 -124.164405)
113,116,141,public,Dealership business hours,39891,P,Future Nissan of Folsom,GPS,38.634132,-121.204871,Folsom,12610 Auto Mall Cir,95630,"['CHADEMO', 'J1772', 'J1772COMBO']",1.0,3.0,Non-Networked,,,14000US06067008703,Sacramento County,both,POINT (38.634132 -121.204871)
114,117,142,public,Dealership business hours,39892,P,Fontana Nissan,200-9,34.135345,-117.445732,Fontana,16444 S Highland Ave,92336,"['CHADEMO', 'J1772', 'J1772COMBO']",1.0,2.0,Non-Networked,,,14000US06071002308,San Bernardino County,both,POINT (34.135345 -117.445732)
115,118,143,public,Dealership business hours,39893,P,Premier Nissan of Fremont,GPS,37.489389,-121.9576,Fremont,5701 Cushing Pkwy,94538,"['CHADEMO', 'J1772']",1.0,2.0,Non-Networked,,,14000US06001441503,Alameda County,both,POINT (37.489389 -121.9576)
116,119,144,public,Dealership business hours,39894,P,Lithia Nissan - Fresno,200-9,36.818622,-119.789796,Fresno,5580 N Blackstone Ave,93710,['J1772'],,1.0,Non-Networked,,,14000US06019004505,Fresno County,level2,POINT (36.818622 -119.789796)
117,120,145,public,Dealership business hours,39895,P,Garden Grove Nissan,200-9,33.766376,-117.968337,Garden Grove,9222 Trask Ave,92844,"['CHADEMO', 'J1772', 'J1772COMBO']",1.0,2.0,Non-Networked,,,14000US06059088901,Orange County,both,POINT (33.766376 -117.968337)
118,121,146,public,Dealership business hours,39896,P,Gardena Nissan,200-8,33.889201,-118.307028,Gardena,1670 W Redondo Beach Blvd,90247,['J1772'],,1.0,Non-Networked,,,14000US06037603006,Los Angeles County,level2,POINT (33.889201 -118.307028)
119,122,147,public,Dealership business hours,39897,P,South County Nissan,200-9,36.996869,-121.558573,Gilroy,400 Automall Dr,95020,['J1772'],,1.0,Non-Networked,,,14000US06085512603,Santa Clara County,level2,POINT (36.996869 -121.558573)
120,123,148,public,Dealership business hours; contact 630-469-6100 for more information,39898,P,Glendale Nissan,200-9,34.137054,-118.25536,Glendale,727 S Brand Blvd,91204,"['CHADEMO', 'J1772', 'J1772COMBO']",1.0,1.0,Non-Networked,,,14000US06037302401,Los Angeles County,both,POINT (34.137054 -118.25536)
121,124,149,public,Dealership business hours,39899,P,Santa Barbara Nissan,200-9,34.43427,-119.820934,Goleta,425 S Kellogg Ave,93117,"['CHADEMO', 'J1772']",1.0,3.0,Non-Networked,,,14000US06083003001,Santa Barbara County,both,POINT (34.43427 -119.820934)
122,125,150,public,Dealership business hours,39901,P,Hayward Nissan,200-9,37.662305,-122.075178,Hayward,24644 Mission Blvd,94544,"['CHADEMO', 'J1772', 'J1772COMBO']",1.0,2.0,Non-Networked,,,14000US06001436500,Alameda County,both,POINT (37.662305 -122.075178)
123,126,151,public,Dealership business hours,39902,P,Pedder Nissan,200-9,33.741163,-117.031718,Hemet,200 Carriage Cir,92545,['J1772'],,1.0,Non-Networked,,,14000US06065043519,Riverside County,level2,POINT (33.741163 -117.031718)
124,127,152,public,Dealership business hours,39903,P,Surf City Nissan,200-9,33.71069,-117.989861,Huntington Beach,17331 Beach Blvd,92647,"['CHADEMO', 'J1772', 'J1772COMBO']",1.0,2.0,Non-Networked,,,14000US06059099402,Orange County,both,POINT (33.71069 -117.989861)
125,128,153,public,Dealership business hours,39904,P,Nissan of Irvine,200-9,33.632505,-117.723298,Irvine,32 Auto Center Dr,92618,"['CHADEMO', 'J1772', 'J1772COMBO']",1.0,2.0,Non-Networked,,,14000US06059052410,Orange County,both,POINT (33.632505 -117.723298)
126,129,154,public,Dealership business hours,39905,P,Torre Nissan,GPS,33.70711,-116.283712,La Quinta,79125 Highway 111,92253,"['CHADEMO', 'J1772']",1.0,2.0,Non-Networked,,,14000US06065045129,Riverside County,both,POINT (33.70711 -116.283712)
127,130,155,public,Dealership business hours,39906,P,Nissan of Downtown Los Angeles,200-9,34.035168,-118.273229,Los Angeles,635 W Washington Blvd,90015,"['CHADEMO', 'J1772']",1.0,1.0,Non-Networked,,,14000US06037224020,Los Angeles County,both,POINT (34.035168 -118.273229)
128,131,156,public,Dealership business hours,39907,P,Universal City Nissan,200-9,34.133446,-118.356601,Los Angeles,3550 Cahuenga Blvd W,90068,"['CHADEMO', 'J1772']",1.0,2.0,Non-Networked,,,14000US06037143700,Los Angeles County,both,POINT (34.133446 -118.356601)
129,132,157,public,Dealership business hours,39908,P,Razzari Nissan,200-9,37.305891,-120.502428,Merced,1675 Auto Center Dr,95340,['J1772'],,1.0,Non-Networked,,,14000US06047001301,Merced County,level2,POINT (37.305891 -120.502428)
130,133,158,public,Dealership business hours,39910,P,Nissan of Mission Hills,200-9,34.269809,-118.466606,Mission Hills,11000 Sepulveda Blvd,91345,['J1772'],,1.0,Non-Networked,,,14000US06037109100,Los Angeles County,level2,POINT (34.269809 -118.466606)
131,134,159,public,Dealership business hours,39911,P,Central Valley Nissan,200-8,37.705119,-120.99471,Modesto,4530 McHenry Ave,95356,['J1772'],,1.0,Non-Networked,,,14000US06099000506,Stanislaus County,level2,POINT (37.705119 -120.99471)
132,135,160,public,Dealership business hours,39912,P,Metro Nissan of Montclair,200-9,34.082404,-117.694876,Montclair,9440 Autoplex Dr,91763,"['CHADEMO', 'J1772', 'J1772COMBO']",1.0,1.0,Non-Networked,,,14000US06071000203,San Bernardino County,both,POINT (34.082404 -117.694876)
133,136,161,public,Dealership business hours,39913,P,Metro Nissan of Redlands,200-9,34.065387,-117.212007,Redlands,1665 Industrial Park Ave,92374,"['CHADEMO', 'J1772', 'J1772COMBO']",1.0,3.0,Non-Networked,,,14000US06071007800,San Bernardino County,both,POINT (34.065387 -117.212007)
134,137,162,public,Dealership business hours,39914,P,Napa Nissan,200-9,38.292706,-122.277767,Napa,510 Soscol Ave,94559,['J1772'],,1.0,Non-Networked,,,14000US06055200301,Napa County,level2,POINT (38.292706 -122.277767)
135,138,163,public,Dealership business hours,39915,P,Mossy Nissan,200-9,32.659001,-117.100836,National City,2700 National City Blvd,91950,['J1772'],,1.0,Non-Networked,,,14000US06073021900,San Diego County,level2,POINT (32.659001 -117.100836)
136,139,164,public,Dealership business hours,39916,P,Mossy Nissan - Oceanside,200-9,33.181953,-117.298334,Oceanside,3535 College Blvd,92056,"['CHADEMO', 'J1772']",1.0,2.0,Non-Networked,,,14000US06073019803,San Diego County,both,POINT (33.181953 -117.298334)
137,140,165,public,Dealership business hours,39917,P,Stadium Nissan,200-9,33.80857,-117.864434,Orange,1140 W Katella Ave,92867,"['CHADEMO', 'J1772']",1.0,2.0,Non-Networked,,,14000US06059076204,Orange County,both,POINT (33.80857 -117.864434)
138,141,166,public,Dealership business hours,39918,P,Team Nissan,GPS,34.22771,-119.150217,Oxnard,1801 Auto Center Dr,93036,"['CHADEMO', 'J1772']",1.0,1.0,Non-Networked,,,14000US06111005002,Ventura County,both,POINT (34.22771 -119.150217)
139,142,167,public,24 hours daily; primarily for customer use,39919,P,Antelope Valley Nissan,GPS,34.591173,-118.138184,Palmdale,451 Auto Center Dr,93551,"['CHADEMO', 'J1772']",2.0,2.0,Non-Networked,,,14000US06037910218,Los Angeles County,both,POINT (34.591173 -118.138184)
140,143,168,public,Dealership business hours,39920,P,North Bay Nissan,200-9,38.267202,-122.665068,Petaluma,1250 Auto Center Dr,94952,"['CHADEMO', 'J1772', 'J1772COMBO']",1.0,4.0,Non-Networked,,,14000US06097151000,Sonoma County,both,POINT (38.267202 -122.665068)
141,144,169,public,Dealership business hours,39921,P,Mossy Nissan - Poway,200-9,32.956772,-117.025943,Poway,14100 Poway Rd,92064,"['CHADEMO', 'J1772']",1.0,1.0,Non-Networked,,,14000US06073017009,San Diego County,both,POINT (32.956772 -117.025943)
142,145,170,public,Dealership business hours,39922,P,Crown Nissan,200-9,40.571632,-122.36654,Redding,300 E Cypress Ave,96002,['J1772'],,1.0,Non-Networked,,,14000US06089010300,Shasta County,level2,POINT (40.571632 -122.36654)
143,146,171,public,Dealership business hours,39923,P,Boardwalk Nissan,200-9,37.495963,-122.227322,Redwood City,1 Bair Island Rd,94063,"['CHADEMO', 'J1772']",1.0,3.0,Non-Networked,,,14000US06081610302,San Mateo County,both,POINT (37.495963 -122.227322)
144,147,172,public,Dealership business hours,39925,P,Hanlees Hilltop Nissan,200-9,37.985253,-122.32124,Richmond,3277 Auto Plaza,94806,"['CHADEMO', 'J1772', 'J1772COMBO']",1.0,1.0,Non-Networked,,,14000US06013365003,Contra Costa County,both,POINT (37.985253 -122.32124)
145,148,173,public,Dealership business hours,39926,P,Raceway Nissan,200-9,33.941878,-117.297603,Riverside,6030 Sycamore Canyon Blvd,92507,['J1772'],,1.0,Non-Networked,,,14000US06065050901,Riverside County,level2,POINT (33.941878 -117.297603)
146,149,174,public,Dealership business hours,39927,P,Riverside Nissan,GPS,33.925469,-117.419673,Riverside,8330 Indiana Ave,92504,"['CHADEMO', 'J1772', 'J1772COMBO']",1.0,2.0,Non-Networked,,,14000US06065031704,Riverside County,both,POINT (33.925469 -117.419673)
147,150,175,public,Dealership business hours; 916-969-5700,39928,P,Future Nissan of Roseville,GPS,38.752198,-121.256452,Roseville,600 Automall Dr,95661,"['CHADEMO', 'J1772', 'J1772COMBO']",1.0,1.0,Non-Networked,,,14000US06061020717,Placer County,both,POINT (38.752198 -121.256452)
148,151,176,public,Dealership business hours; 916-488-5400,39929,P,Nissan of Sacramento,GPS,38.631393,-121.396604,Sacramento,2820 Auburn Blvd,95821,"['CHADEMO', 'J1772', 'J1772COMBO']",1.0,1.0,Non-Networked,,,14000US06067006101,Sacramento County,both,POINT (38.631393 -121.396604)
149,152,177,public,Dealership business hours,39930,P,MY Nissan,GPS,36.720023,-121.662519,Salinas,222 Auto Center Cir,93907,"['CHADEMO', 'J1772']",1.0,2.0,Non-Networked,,,14000US06053010504,Monterey County,both,POINT (36.720023 -121.662519)
150,153,178,public,Dealership business hours; contact 909-885-3883 for more information,39931,P,Larry H Miller Nissan of San Bernardino,GPS,34.074378,-117.298,San Bernardino,735 Showcase Dr S,92408,"['CHADEMO', 'J1772']",1.0,1.0,Non-Networked,,,14000US06071012400,San Bernardino County,both,POINT (34.074378 -117.298)
151,154,179,public,Dealership business hours,39932,P,Mossy Nissan - Kearny Mesa,200-9,32.833179,-117.147384,San Diego,8118 Clairemont Mesa Blvd,92111,"['CHADEMO', 'J1772']",1.0,1.0,Non-Networked,,,14000US06073008511,San Diego County,both,POINT (32.833179 -117.147384)
152,155,180,public,Dealership business hours,39933,P,Pacific Nissan,200-9,32.802475,-117.215269,San Diego,4433 Mission Bay Dr,92109,"['CHADEMO', 'J1772']",1.0,1.0,Non-Networked,,,14000US06073007800,San Diego County,both,POINT (32.802475 -117.215269)
153,156,181,public,Dealership business hours,39934,P,Nissan Sunnyvale,200-9,37.359362,-122.022783,Sunnyvale,680 E El Camino Real,94087,['J1772'],,2.0,Non-Networked,,,14000US06085508503,Santa Clara County,level2,POINT (37.359362 -122.022783)
154,157,182,public,Dealership business hours,39935,P,Premier Nissan,GPS,37.275144,-121.877656,San Jose,1120 W Capitol Expy,95136,"['CHADEMO', 'J1772', 'J1772COMBO']",2.0,1.0,Non-Networked,,,14000US06085503003,Santa Clara County,both,POINT (37.275144 -121.877656)
155,158,183,public,Dealership business hours,39936,P,Nissan of San Juan Capistrano,200-9,33.47443,-117.676142,San Juan Capistrano,33633 Camino Capistrano,92675,"['CHADEMO', 'J1772']",1.0,2.0,Non-Networked,,,14000US06059042201,Orange County,both,POINT (33.47443 -117.676142)
156,159,184,public,Dealership business hours,39937,P,San Leandro Nissan,GPS,37.712609,-122.162746,San Leandro,1152 Marina Blvd,94577,"['CHADEMO', 'J1772', 'J1772COMBO']",1.0,2.0,Non-Networked,,,14000US06001432501,Alameda County,both,POINT (37.712609 -122.162746)
157,160,185,public,Dealership business hours,39938,P,Coast Nissan,GPS,35.25062,-120.68455,San Luis Obispo,12150 Los Osos Valley Rd,93405,"['CHADEMO', 'J1772']",1.0,4.0,Non-Networked,,,14000US06079011300,San Luis Obispo County,both,POINT (35.25062 -120.68455)
158,161,186,public,Dealership business hours,39939,P,Stevens Creek Nissan,200-9,37.323569,-121.988027,Santa Clara,4855 Stevens Creek Blvd,95051,"['CHADEMO', 'J1772', 'J1772COMBO']",2.0,1.0,Non-Networked,,,14000US06085506103,Santa Clara County,both,POINT (37.323569 -121.988027)
159,162,187,public,Dealership business hours,39943,P,Jim Bone Nissan,200-9,38.425537,-122.714089,Santa Rosa,1275 Santa Rosa Ave,95404,"['CHADEMO', 'J1772', 'J1772COMBO']",1.0,4.0,Non-Networked,,,14000US06097151406,Sonoma County,both,POINT (38.425537 -122.714089)
160,163,188,public,Dealership business hours,39944,P,Cardinale Nissan,GPS,36.611189,-121.849899,Seaside,1661 Del Monte Blvd,93955,"['CHADEMO', 'J1772']",1.0,2.0,Non-Networked,,,14000US06053014000,Monterey County,both,POINT (36.611189 -121.849899)
161,164,189,public,Dealership business hours,39945,P,Nissan of Van Nuys,200-9,34.168824,-118.449059,Sherman Oaks,5425 Van Nuys Blvd,91401,"['CHADEMO', 'J1772', 'J1772COMBO']",1.0,1.0,Non-Networked,,,14000US06037128802,Los Angeles County,both,POINT (34.168824 -118.449059)
162,165,190,public,Dealership business hours,39947,P,First Nissan,200-8,34.277324,-118.778957,Simi Valley,2325 1st St,93065,"['CHADEMO', 'J1772', 'J1772COMBO']",1.0,1.0,Non-Networked,,,14000US06111007700,Ventura County,both,POINT (34.277324 -118.778957)
163,166,191,public,Dealership business hours,39948,P,Nissan of Stockton,200-9,38.022022,-121.275339,Stockton,3077 E Hammer Ln,95212,"['CHADEMO', 'J1772']",1.0,2.0,Non-Networked,,,14000US06077003503,San Joaquin County,both,POINT (38.022022 -121.275339)
164,167,192,public,Dealership business hours,39949,P,Temecula Nissan,200-9,33.516768,-117.155039,Temecula,41895 Motor Car Pkwy,92591,"['CHADEMO', 'J1772']",1.0,2.0,Non-Networked,,,14000US06065043216,Riverside County,both,POINT (33.516768 -117.155039)
165,168,193,public,Dealership business hours,39951,P,Tracy Nissan,GPS,37.75990555387505,-121.4632051865082,Tracy,3195 N Naglee Rd,95304,['J1772'],,1.0,Non-Networked,,,14000US06077005225,San Joaquin County,level2,POINT (37.75990555387505 -121.4632051865082)
166,169,194,public,Dealership business hours,39952,P,Nissan of Tustin,200-9,33.72484,-117.799302,Tustin,30 Auto Center Dr,92782,"['CHADEMO', 'J1772', 'J1772COMBO']",1.0,1.0,Non-Networked,,,14000US06059052524,Orange County,both,POINT (33.72484 -117.799302)
167,170,195,public,Dealership business hours,39953,P,Nissan of Vacaville,200-9,38.381441,-121.941218,Vacaville,671 Orange Dr,95687,['J1772'],,1.0,Non-Networked,,,14000US06095252911,Solano County,level2,POINT (38.381441 -121.941218)
168,171,196,public,Dealership business hours,39954,P,Champion Nissan,200-9,34.420546,-118.557774,Valencia,24111 Creekside Rd,91355,['J1772'],,3.0,Non-Networked,,,14000US06037920115,Los Angeles County,level2,POINT (34.420546 -118.557774)
169,172,197,public,Dealership business hours,39955,P,Vallejo Nissan,200-9,38.118088,-122.255493,Vallejo,3287 Sonoma Blvd,94590,['J1772'],,1.0,Non-Networked,,,14000US06095251701,Solano County,level2,POINT (38.118088 -122.255493)
170,173,198,public,Dealership business hours; contact 760-241-1700 for more information,39956,P,Valley Hi Nissan,GPS,34.517883,-117.3219,Victorville,15722 Valley Park Ln,92394,['J1772'],,1.0,Non-Networked,,,14000US06071009917,San Bernardino County,level2,POINT (34.517883 -117.3219)
171,174,199,public,Dealership business hours,39957,P,Nissan of Visalia,200-9,36.32327,-119.27569,Visalia,830 S Ben Maddox Way,93292,"['CHADEMO', 'J1772', 'J1772COMBO']",1.0,1.0,Non-Networked,,,14000US06107001703,Tulare County,both,POINT (36.32327 -119.27569)
172,175,200,public,Dealership business hours,39959,P,West Covina Nissan,200-9,34.074227,-117.890899,West Covina,205 N Citrus St,91791,"['CHADEMO', 'J1772']",1.0,1.0,Non-Networked,,,14000US06037406413,Los Angeles County,both,POINT (34.074227 -117.890899)
173,176,201,public,7am-8:30pm daily,40185,P,International Brotherhood of Electrical Workers 569 - NECA Electrical Training Center,GPS,32.823912,-117.12114,San Diego,4675 Viewridge Ave,92123,['J1772'],,2.0,Non-Networked,,,14000US06073008511,San Diego County,level2,POINT (32.823912 -117.12114)
174,177,202,public,Dealership business hours; customer use only,40407,P,Smart Center San Diego,GPS,32.82408524,-117.1471252,San Diego,4750 Kearny Mesa Rd,92111,"['J1772', 'NEMA520']",,1.0,Non-Networked,,,14000US06073008511,San Diego County,level2,POINT (32.82408524 -117.1471252)
175,178,206,public,24 hours daily; pay lot,41526,LG,Marsh Street Parking Structure,GPS,35.279705,-120.6609,San Luis Obispo,881 Marsh St,93401,['J1772'],,2.0,Non-Networked,,,14000US06079011104,San Luis Obispo County,level2,POINT (35.279705 -120.6609)
176,179,207,public,24 hours daily,43478,P,Malibu Country Mart,200-9,34.035802,-118.686393,Malibu,3835 Cross Creek Rd,90265,['J1772'],,2.0,Non-Networked,,,14000US06037800504,Los Angeles County,level2,POINT (34.035802 -118.686393)
177,180,208,public,6am-12am daily,43526,FG,Golden Gate National Recreation Area - Crissy Field,GPS,37.806099,-122.449461,San Francisco,1199 E Beach,94129,['J1772'],,2.0,Volta,,,14000US06075060100,San Francisco County,level2,POINT (37.806099 -122.449461)
178,181,210,public,24 hours daily,44400,,EVSP WALGREENS STORE 11241,GPS,33.577103,-117.723844,Aliso Viejo,26531 Aliso Creek Rd,92656,['J1772'],,2.0,ChargePoint Network,,,14000US06059062637,Orange County,level2,POINT (33.577103 -117.723844)
179,182,212,public,24 hours daily,45313,,CITY OF DUBLIN STATION 3,GPS,37.702909,-121.91835,Dublin,200 Civic Plaza,94568,['J1772'],,1.0,ChargePoint Network,,,14000US06001450300,Alameda County,level2,POINT (37.702909 -121.91835)
180,183,213,public,24 hours daily; pay lot,46136,LG,Amador Transit,GPS,38.379983,-120.807672,Sutter Creek,115 Valley View Way,95685,['J1772'],,2.0,Non-Networked,,,14000US06005000303,Amador County,level2,POINT (38.379983 -120.807672)
181,184,214,public,Garage business hours; pay lot; Drivers must bring their own J1772 cordset for Level 1 charging,46473,P,Golden Gate Park - Music Concourse Garage,200-8,37.768766,-122.468341,San Francisco,1 Music Concourse Dr,94118,"['J1772', 'NEMA520']",,2.0,Non-Networked,,,14000US06075980300,San Francisco County,level2,POINT (37.768766 -122.468341)
182,185,215,public,7am-6pm M-F,46482,T,Cupertino Electric,GPS,37.36217972612609,-121.8995386415253,San Jose,1132 N 7th St,95112,['J1772'],,12.0,Non-Networked,,SOLAR,14000US06085500100,Santa Clara County,level2,POINT (37.36217972612609 -121.8995386415253)
183,186,217,public,Dealership business hours,46709,P,Nissan of Burlingame,200-9,37.57792,-122.341931,Burlingame,101 California Dr,94010,['J1772'],,1.0,Non-Networked,,,14000US06081605502,San Mateo County,level2,POINT (37.57792 -122.341931)
184,187,219,public,24 hours daily,46715,,CITYOF CAMPBELL 2NDST GARAGE UL,GPS,37.287593,-121.946908,Campbell,41 N 2nd St,95008,['J1772'],,1.0,ChargePoint Network,,,14000US06085506502,Santa Clara County,level2,POINT (37.287593 -121.946908)
185,188,220,public,Dealership business hours,46721,P,Dublin Nissan,GPS,37.702828,-121.911087,Dublin,6450 Dublin Ct,94568,"['CHADEMO', 'J1772']",1.0,4.0,Non-Networked,,,14000US06001450300,Alameda County,both,POINT (37.702828 -121.911087)
186,189,222,public,24 hours daily,46723,P,Stone Brewing World Bistro & Gardens,GPS,33.11587,-117.11955,Escondido,1999 Citracado Pkwy,92029,['J1772'],,2.0,Non-Networked,,,14000US06073020313,San Diego County,level2,POINT (33.11587 -117.11955)
187,190,223,public,Dealership business hours,46724,P,Momentum Nissan,200-9,38.244614,-122.079181,Fairfield,2545 Auto Mall Pkwy,94533,"['CHADEMO', 'J1772', 'J1772COMBO']",1.0,2.0,Non-Networked,,,14000US06095252402,Solano County,both,POINT (38.244614 -122.079181)
188,191,225,public,24 hours daily; for guest use only,46729,P,Renaissance Indian Wells Resort & Spa,GPS,33.72323,-116.324409,Indian Wells,44400 Indian Wells Ln,92210,['J1772'],,2.0,Non-Networked,,,14000US06065045122,Riverside County,level2,POINT (33.72323 -116.324409)
189,192,227,public,Garage business hours,46733,P,Los Angeles County - Museum of Art,200-9,34.063383,-118.35808,Los Angeles,5905 Wilshire Blvd,90036,['J1772'],,5.0,Non-Networked,,,14000US06037215101,Los Angeles County,level2,POINT (34.063383 -118.35808)
190,193,228,public,Dealership business hours,46743,P,Empire Nissan,200-9,34.049006,-117.547161,Ontario,1377 Kettering Loop,91761,"['CHADEMO', 'J1772', 'J1772COMBO']",1.0,1.0,Non-Networked,,,14000US06071012700,San Bernardino County,both,POINT (34.049006 -117.547161)
191,194,230,public,24 hours daily; must have MobileNow! App for payment; maximum session time of 4 hours,46972,LG,City of Rancho Cucamonga - Archibald Library,200-9,34.120214,-117.593952,Rancho Cucamonga,7368 Archibald Ave,91730,['J1772'],,1.0,Non-Networked,,,14000US06071002027,San Bernardino County,level2,POINT (34.120214 -117.593952)
192,195,231,public,24 hours daily; must use MobileNow! App for payment; maximum session time of 4 hours,46973,LG,City of Rancho Cucamonga - City Hall,GPS,34.10303,-117.576,Rancho Cucamonga,10500 Civic Center Dr,91730,['J1772'],,2.0,Non-Networked,,,14000US06071002111,San Bernardino County,level2,POINT (34.10303 -117.576)
193,196,232,public,24 hours daily; must have MobileNow! App for payment; maximum session time of 4 hours,46974,LG,City of Rancho Cucamonga - Animal Care & Adoption Center,200-9,34.100456,-117.54918,Rancho Cucamonga,11780 Arrow Rt,91730,['J1772'],,1.0,Non-Networked,,,14000US06071002112,San Bernardino County,level2,POINT (34.100456 -117.54918)
194,197,233,public,6am-10pm daily; must use MobileNow! App for payment; maximum session time of 4 hours,46976,LG,City of Rancho Cucamonga - Red Hill Community Park,GPS,34.11787,-117.611,Rancho Cucamonga,7484 Vineyard Ave,91730,['J1772'],,1.0,Non-Networked,,,14000US06071002016,San Bernardino County,level2,POINT (34.11787 -117.611)
195,198,234,public,6am-10pm daily; must have MobileNow! App for payment; maximum session time of 4 hours,46978,LG,City of Rancho Cucamonga - Heritage Community Park,200-8,34.154033,-117.607446,Rancho Cucamonga,5546 Beryl St,91737,['J1772'],,1.0,Non-Networked,,,14000US06071002017,San Bernardino County,level2,POINT (34.154033 -117.607446)
196,199,235,public,Dealership business hours; Drivers must bring their own J1772 cordset for Level 1 charging,47457,P,Toyota of Santa Cruz,200-9,36.981884,-121.962228,Capitola,4200 Auto Plaza Dr,95010,"['J1772', 'NEMA520']",,1.0,Non-Networked,,,14000US06087121701,Santa Cruz County,level2,POINT (36.981884 -121.962228)
197,200,272,public,Dealership business hours,48141,P,Santa Maria Nissan,200-9,34.931796,-120.420639,Santa Maria,1001 E Battles Rd,93454,['J1772'],,2.0,Non-Networked,,,14000US06083002103,Santa Barbara County,level2,POINT (34.931796 -120.420639)
198,201,289,public,24 hours daily,48179,,CITY OF COTATI COMMUNITYCENTR2,GPS,38.32398,-122.709121,Cotati,216 E School St,94931,['J1772'],,1.0,ChargePoint Network,,,14000US06097151204,Sonoma County,level2,POINT (38.32398 -122.709121)
199,202,297,public,9am-5pm M-F,48353,P,"AAA - Auto Club of Southern California, Costa Mesa Branch",GPS,33.69276,-117.9183,Costa Mesa,3350 Harbor Blvd,92626,['J1772'],,2.0,Non-Networked,,,14000US06059063910,Orange County,level2,POINT (33.69276 -117.9183)
200,203,298,public,9am-5pm M-F,48358,P,"AAA - Auto Club of Southern California, Los Angeles Branch",GPS,34.02828,-118.2778,Los Angeles,2601 S Figueroa St,90007,['J1772'],,2.0,Non-Networked,,,14000US06037224701,Los Angeles County,level2,POINT (34.02828 -118.2778)
201,204,299,public,24 hours daily; pay lot; for guest use only,48362,P,Marriott - Renaissance Los Angeles Airport Hotel,GPS,33.9492,-118.385,Los Angeles,9620 Airport Blvd,90045,['J1772'],,2.0,Non-Networked,,,14000US06037277200,Los Angeles County,level2,POINT (33.9492 -118.385)
202,205,300,public,24 hours daily; see valet for access,48365,P,JW Marriott Desert Springs Resort & Spa,GPS,33.75562,-116.361,Palm Desert,74855 Country Club Dr,92260,['J1772'],,51.0,EV Connect,,,14000US06065044930,Riverside County,level2,POINT (33.75562 -116.361)
203,206,301,public,8am-11pm daily,48368,P,Target,GPS,35.25211177248671,-120.6859746944428,San Luis Obispo,12076 Los Osos Valley Rd,93401,['J1772'],,6.0,Non-Networked,,,14000US06079011300,San Luis Obispo County,level2,POINT (35.25211177248671 -120.6859746944428)
204,207,302,public,,48705,,"Enterprise Rent-A-Car, Santa Monica",GPS,34.029456,-118.485814,Santa Monica,1719 Wilshire Blvd,90403,['J1772'],,2.0,OpConnect,,,14000US06037701501,Los Angeles County,level2,POINT (34.029456 -118.485814)
205,208,303,public,,48710,,"Enterprise Rent-A-Car, Torrance",GPS,33.842487,-118.354006,Torrance,20625 Hawthorne Blvd,90503,['J1772'],,2.0,OpConnect,,,14000US06037650606,Los Angeles County,level2,POINT (33.842487 -118.354006)
206,209,306,public,24 hours daily; MobileNOW! Phone application,48728,LG,City of Morro Bay - Morro Bay Transit,GPS,35.36725,-120.847,Morro Bay,535 Harbor St,93442,['J1772'],,1.0,Non-Networked,,,14000US06079010603,San Luis Obispo County,level2,POINT (35.36725 -120.847)
207,210,307,public,Garage business hours; 4 hour parking limit; pay lot,48823,LG,Brea Civic Center,GPS,33.91743,-117.889,Brea,1 Civic Center Cir,92821,['J1772'],,3.0,Non-Networked,,SOLAR,14000US06059001504,Orange County,level2,POINT (33.91743 -117.889)
208,211,308,public,24 hours daily; free for customer use,48836,P,Marcum Copp Barbieri DDS,GPS,35.28059,-120.657,San Luis Obispo,1129 Pacific St,93401,['J1772'],,1.0,Non-Networked,,SOLAR,14000US06079011101,San Luis Obispo County,level2,POINT (35.28059 -120.657)
209,212,309,public,24 hours daily; Drivers must bring their own J1772 cordset for Level 1 charging,48838,LG,Bella Vista Road Park & Ride Lot,GPS,38.34962,-121.987,Vacaville,782 Davis Ct,95687,"['CHADEMO', 'J1772', 'NEMA520', 'TESLA']",1.0,4.0,Non-Networked,1 SP Inductive,,14000US06095253108,Solano County,both,POINT (38.34962 -121.987)
210,213,311,public,Lot business hours; parking permit required; must have MobileNow! App for payment; maximum session time of 4 hours,48979,LG,City of Rancho Cucamonga - Metrolink Station,GPS,34.09177,-117.559,Rancho Cucamonga,11208 Azuza Ct,91730,['J1772'],,2.0,Non-Networked,,,14000US06071002112,San Bernardino County,level2,POINT (34.09177 -117.559)
211,214,313,public,24 hours daily,49122,LG,Lodi City Hall,GPS,38.13437,-121.2884,Lodi,221 W Pine St,95240,['J1772'],,2.0,Non-Networked,,,14000US06077004205,San Joaquin County,level2,POINT (38.13437 -121.2884)
212,215,314,public,Dealership business hours; for customer use only,49127,P,Sierra Chrysler Dodge Jeep Ram,GPS,34.13867,-117.9869,Monrovia,1305 S Mountain Ave,91016,['J1772'],,3.0,Non-Networked,,,14000US06037431100,Los Angeles County,level2,POINT (34.13867 -117.9869)
213,216,316,public,Park visitor hours,49130,FG,Rancho Sierra Vista - Public Parking Lot,GPS,34.152947,-118.965356,Newbury Park,4126 Potrero Rd,91320,['J1772'],,1.0,Non-Networked,,,14000US06111007300,Ventura County,level2,POINT (34.152947 -118.965356)
214,217,317,public,24 hours daily; pay lot,49131,LG,Ontario International Airport,GPS,34.0616,-117.5935,Ontario,Terminal Way,91761,['J1772'],,6.0,Non-Networked,,,14000US06071001600,San Bernardino County,level2,POINT (34.0616 -117.5935)
215,218,318,public,24 hours daily; parking permit required,49133,P,John T Lyle Center for Regenerative Studies,GPS,34.049341,-117.82341,Walnut,4105 University S Dr,91768,['J1772'],,2.0,Non-Networked,,,14000US06037402404,Los Angeles County,level2,POINT (34.049341 -117.82341)
216,219,319,public,24 hours daily,49134,P,University of California - Davis Medical Center,GPS,38.553545,-121.4561,Sacramento,4241 X St,95817,['J1772'],,10.0,Non-Networked,,,14000US06067001702,Sacramento County,level2,POINT (38.553545 -121.4561)
217,220,320,public,24 hours daily; leave cell phone number visible on dashboard in case of emergency,49149,P,Mojave Desert Air Quality Management District,GPS,34.511036,-117.325348,Victorville,14306 Park Ave,92392,['J1772'],,7.0,Non-Networked,,,14000US06071009914,San Bernardino County,level2,POINT (34.511036 -117.325348)
218,221,321,public,24 hours daily,49255,P,Winner Chevrolet,GPS,39.084259,-120.956,Colfax,1624 S Canyon Way,95713,"['J1772', 'J1772COMBO']",1.0,2.0,Non-Networked,,,14000US06061022002,Placer County,both,POINT (39.084259 -120.956)
219,222,322,public,24 hours daily; maximum session time of 2 hours,49329,LG,City of Davis - City Hall,GPS,38.546699,-121.7461,Davis,23 Russell Blvd,95616,['J1772'],,2.0,Non-Networked,,,14000US06113010701,Yolo County,level2,POINT (38.546699 -121.7461)
220,223,323,public,8am-5pm daily; no overnight parking; contact 530-757-3650 for more information,49330,LG,Yolo-Solano Air Quality Management District,GPS,38.54246,-121.7279,Davis,1947 Galileo Ct,95618,['J1772'],,2.0,Non-Networked,,,14000US06113010608,Yolo County,level2,POINT (38.54246 -121.7279)
221,224,324,public,24 hours daily,49333,LG,Malibu Civic Center,200-9,34.037227,-118.689023,Malibu,23525 Civic Center Way,90265,['J1772'],,3.0,Non-Networked,,,14000US06037800504,Los Angeles County,level2,POINT (34.037227 -118.689023)
222,225,325,public,24 hours daily,49336,,HARTNELLCOLLEGE CENTRAL AVE 1,GPS,36.673856,-121.665804,Salinas,411 Central Ave,93901,['J1772'],,2.0,ChargePoint Network,,,14000US06053001400,Monterey County,level2,POINT (36.673856 -121.665804)
223,226,326,public,24 hours daily; for guest use only,49342,P,Homewood Suites - San Jose Airport,GPS,37.38514,-121.9288,San Jose,10 W Trimble Rd,95131,['J1772'],,2.0,Non-Networked,,,14000US06085505006,Santa Clara County,level2,POINT (37.38514 -121.9288)
224,227,327,public,24 hours daily; maximum session time of 3 hours,49350,LG,Vallejo City Hall,GPS,38.1022,-122.261,Vallejo,555 Santa Clara St,94590,['J1772'],,2.0,Non-Networked,,,14000US06095250900,Solano County,level2,POINT (38.1022 -122.261)
225,228,330,public,24 hours daily,49985,P,Siemens Ultra,GPS,37.39120483,-122.0531,Mountain View,685 E Middlefield Rd,94043,['J1772'],,4.0,Non-Networked,,,14000US06085509109,Santa Clara County,level2,POINT (37.39120483 -122.0531)
226,229,332,public,24 hours daily; pay lot; for guest use only,50011,P,InterContinental Hotel - San Francisco,200-9,37.782079,-122.404764,San Francisco,888 Howard St,94103,['J1772'],,2.0,Non-Networked,,,14000US06075017602,San Francisco County,level2,POINT (37.782079 -122.404764)
227,230,333,public,24 hours daily; pay lot,50153,LG,City of Pasadena - Los Robles Garage,200-9,34.144224,-118.142129,Pasadena,400 E Green St,91101,['J1772'],,6.0,Non-Networked,,,14000US06037463602,Los Angeles County,level2,POINT (34.144224 -118.142129)
228,231,334,public,24 hours daily; pay lot,50154,LG,City of Pasadena - Plaza Las Fuentes,200-9,34.148186,-118.141776,Pasadena,135 N Los Robles Ave,91101,['J1772'],,3.0,Non-Networked,,,14000US06037461902,Los Angeles County,level2,POINT (34.148186 -118.141776)
229,232,335,public,24 hours daily,50157,P,Best Western - Pepper Tree Inn,200-9,34.441146,-119.748892,Santa Barbara,3850 State St,93105,['J1772'],,2.0,Non-Networked,,,14000US06083000102,Santa Barbara County,level2,POINT (34.441146 -119.748892)
230,233,336,public,24 hours daily; pay lot,50424,P,Los Angeles Metro - Chatsworth Metrolink Station,200-8,34.253049,-118.598675,Chatsworth,10040 Old Depot Plaza Rd,91311,['J1772'],,3.0,EVGATEWAY,,,14000US06037113213,Los Angeles County,level2,POINT (34.253049 -118.598675)
231,234,337,public,24 hours daily; pay lot,50736,LG,Oakland International Airport - Economy Lot,GPS,37.7153,-122.2145,Oakland,1 Airport Dr,94621,['J1772'],,2.0,Non-Networked,1 SP Inductive,,14000US06001409000,Alameda County,level2,POINT (37.7153 -122.2145)
232,235,338,public,Park business hours; pay lot,50742,P,Monterey Zoo,200-9,36.594595,-121.624692,Salinas,400 River Rd,93908,['J1772'],,1.0,Non-Networked,,,14000US06053010702,Monterey County,level2,POINT (36.594595 -121.624692)
233,236,339,public,Staff only 7am-10:30am; public use 10:30am-10pm,50792,P,Santa Barbara City College - Lot 4D,GPS,34.40641,-119.697,Santa Barbara,721 Cliff Dr,93109,['J1772'],,4.0,Non-Networked,,,14000US06083001206,Santa Barbara County,level2,POINT (34.40641 -119.697)
234,237,340,public,24 hours daily,50799,LG,City of Temecula - Old Town Parking Garage,GPS,33.49353,-117.146,Temecula,28690 Mercedes St,92590,['J1772'],,2.0,Non-Networked,,,14000US06065051200,Riverside County,level2,POINT (33.49353 -117.146)
235,238,341,public,24 hours daily; for guest use only; see security to access,50949,P,Wilson Sonsini Goodrich & Rosati,GPS,37.782284,-122.418185,Palo Alto,650 Page Mill Rd,94304,['J1772'],,2.0,Non-Networked,,,14000US06075012406,San Francisco County,level2,POINT (37.782284 -122.418185)
236,239,342,public,Dealership business hours,50969,P,Nissan of San Francisco,200-9,37.788127,-122.422143,San Francisco,1395 Van Ness Ave,94109,['J1772'],,1.0,Non-Networked,,,14000US06075015100,San Francisco County,level2,POINT (37.788127 -122.422143)
237,240,344,public,24 hours daily,51002,P,University of California Davis - Institute of Transportation Studies,GPS,38.54215,-121.771,Davis,1605 Tilia St,95616,['J1772'],,2.0,Non-Networked,,,14000US06113010501,Yolo County,level2,POINT (38.54215 -121.771)
238,241,345,public,24 hours daily,51053,,SAN JUAN OAKSGC SJO GOLF,GPS,36.841817,-121.457305,Hollister,3825 Union Rd,95023,['J1772'],,2.0,ChargePoint Network,,,14000US06069000702,San Benito County,level2,POINT (36.841817 -121.457305)
239,242,346,public,6am-10pm daily; must use MobileNow! App for payment; maximum session time of 4 hours,51131,LG,City of Rancho Cucamonga - Beryl Park West,GPS,34.136245,-117.61613,Rancho Cucamonga,6501 Carnelian St,91701,['J1772'],,1.0,Non-Networked,,,14000US06071002013,San Bernardino County,level2,POINT (34.136245 -117.61613)
240,243,347,public,24 hours daily,51204,P,BoardTronics,200-9,38.797142,-121.31234,Roseville,1364 Blue Oaks Blvd,95678,['J1772'],,2.0,Non-Networked,,,14000US06061023100,Placer County,level2,POINT (38.797142 -121.31234)
241,244,349,public,24 hours daily,51210,P,Sheldon Town Center,200-9,38.431454,-121.299343,Elk Grove,8973 Grant Line Rd,95624,['J1772'],,1.0,Non-Networked,,,14000US06067009336,Sacramento County,level2,POINT (38.431454 -121.299343)
242,245,350,public,24 hours daily; maximum session time of three hours,51211,LG,Folsom Historic District Parking Structure,200-9,38.676631,-121.179577,Folsom,905 Leidesdorff St,95630,['J1772'],,2.0,Non-Networked,,,14000US06067008404,Sacramento County,level2,POINT (38.676631 -121.179577)
243,246,351,public,11am-5pm Th-M; see front desk for passcode,51214,P,Hudson Street Wineries,200-8,38.606405,-122.862269,Healdsburg,428 Hudson St,95448,['J1772'],,1.0,Non-Networked,,,14000US06097153902,Sonoma County,level2,POINT (38.606405 -122.862269)
244,247,352,public,24 hours daily,51234,SG,California Air Resources Board,200-9,38.568681,-121.492654,Sacramento,1900 14th St,95811,['J1772'],,2.0,Non-Networked,,,14000US06067002000,Sacramento County,level2,POINT (38.568681 -121.492654)
245,248,353,public,Garage business hours; pay lot,51236,P,Wells Fargo Center,200-9,38.578648,-121.50238,Sacramento,400 Capital Mall,95814,['J1772'],,5.0,Non-Networked,,,14000US06067000800,Sacramento County,level2,POINT (38.578648 -121.50238)
246,249,355,public,24 hours daily; for guest use only; see front desk for access,51252,P,The Cedar House Sport Hotel,200-9,39.324006,-120.169783,Truckee,10918 Brockway Rd,96161,['J1772'],,3.0,Non-Networked,,,14000US06057001207,Nevada County,level2,POINT (39.324006 -120.169783)
247,250,356,public,24 hours daily; Also accepts MobileNOW! Phone application,51515,LG,City of Morro Bay - Chamber of Commerce,200-8,35.366911,-120.845475,Morro Bay,695 Harbor St,93442,['J1772'],,1.0,Non-Networked,,,14000US06079010603,San Luis Obispo County,level2,POINT (35.366911 -120.845475)
248,251,357,public,24 hours daily,51516,LG,City of Palm Desert - City Hall,GPS,33.730812,-116.38184,Palm Desert,73510 Fred Waring Dr,92260,['J1772'],,4.0,Non-Networked,,,14000US06065045119,Riverside County,level2,POINT (33.730812 -116.38184)
249,252,358,public,Lot business hours; must have MobileNow! App for payment; maximum session time of 4 hours,51518,LG,City of Rancho Cucamonga - Public Works Service Center,200-9,34.093578,-117.605249,Rancho Cucamonga,8794 Lions St,91730,['J1772'],,1.0,Non-Networked,,,14000US06071002105,San Bernardino County,level2,POINT (34.093578 -117.605249)
250,253,359,public,24 hours daily,51716,LG,City of Palm Desert - Park View Building,GPS,33.729855,-116.379108,Palm Desert,73710 Fred Waring Dr,92260,['J1772'],,2.0,Non-Networked,,,14000US06065045119,Riverside County,level2,POINT (33.729855 -116.379108)
251,254,361,public,24 hours daily,51912,P,Newport Mesa Church,GPS,33.663495,-117.899372,Costa Mesa,2599 Newport Blvd,92626,['J1772'],,2.0,Non-Networked,,,14000US06059063906,Orange County,level2,POINT (33.663495 -117.899372)
252,255,363,public,24 hours daily,51919,LG,City of Lodi - Finance Department,200-9,38.135267,-121.276865,Lodi,310 W Elm St,95240,['J1772'],,1.0,Non-Networked,,,14000US06077004204,San Joaquin County,level2,POINT (38.135267 -121.276865)
253,256,364,public,24 hours daily,51920,LG,Hutchins Street Square Community Center,200-9,38.132382,-121.280312,Lodi,125 S Hutchins St,95240,['J1772'],,1.0,Non-Networked,,,14000US06077004204,San Joaquin County,level2,POINT (38.132382 -121.280312)
254,257,365,public,24 hours daily,51921,LG,Lodi Animals Service and Shelter,200-8,38.115528,-121.288943,Lodi,1345 W Kettleman Ln,95242,['J1772'],,1.0,Non-Networked,,,14000US06077004309,San Joaquin County,level2,POINT (38.115528 -121.288943)
255,258,366,public,24 hours daily,51922,LG,Lodi Downtown Parking Structure,200-9,38.134789,-121.27182,Lodi,50 N Sacramento St,95240,['J1772'],,1.0,Non-Networked,,,14000US06077004204,San Joaquin County,level2,POINT (38.134789 -121.27182)
256,259,367,public,24 hours daily,51923,LG,Lodi Public Library,200-9,38.137038,-121.275506,Lodi,201 W Locust St,95240,['J1772'],,1.0,Non-Networked,,,14000US06077004204,San Joaquin County,level2,POINT (38.137038 -121.275506)
257,260,368,public,3pm-12am daily; 2 hour parking limit,51926,LG,City of Manhattan Beach - City Hall Garage,GPS,33.886925,-118.409726,Manhattan Beach,1400 Highland Ave,90266,['J1772'],,4.0,Non-Networked,,,14000US06037620305,Los Angeles County,level2,POINT (33.886925 -118.409726)
258,261,369,public,24 hours daily,51933,P,ProjectGreenHome.org,200-9,37.430039,-122.147944,Palo Alto,314 Stanford Ave,94306,['J1772'],,2.0,Non-Networked,,SOLAR,14000US06085511501,Santa Clara County,level2,POINT (37.430039 -122.147944)
259,262,370,public,24 hours daily,51934,P,Unitarian Universalist Church,200-9,37.419672,-122.112723,Palo Alto,505 E Charleston Rd,94306,['J1772'],,1.0,Non-Networked,,SOLAR,14000US06085510803,Santa Clara County,level2,POINT (37.419672 -122.112723)
260,263,371,public,7am-10pm daily,51937,P,Marymount College at Rancho Palos Verdes,GPS,33.734966,-118.333329,Rancho Palos Verdes,30800 Palos Verdes Dr E,90275,['J1772'],,2.0,Non-Networked,,,14000US06037670702,Los Angeles County,level2,POINT (33.734966 -118.333329)
261,264,372,public,24 hours daily,51945,P,California State University - San Bernardino,GPS,34.181225,-117.323647,San Bernardino,5500 University Pkwy,92407,['J1772'],,3.0,Non-Networked,,,14000US06071004510,San Bernardino County,level2,POINT (34.181225 -117.323647)
262,265,373,public,24 hours daily,51947,P,Via Verde Park & Ride,200-8,34.077429,-117.81619,San Dimas,181 E Via Verde,91773,['J1772'],,2.0,Non-Networked,,,14000US06037401304,Los Angeles County,level2,POINT (34.077429 -117.81619)
263,266,374,public,24 hours daily,51951,P,Marymount College at San Pedro,200-8,33.777672,-118.302516,Los Angeles,15401 USS New Jersey,90732,['J1772'],,2.0,Non-Networked,,,14000US06037980015,Los Angeles County,level2,POINT (33.777672 -118.302516)
264,267,375,public,24 hours daily,51952,P,Mark Day School,200-9,38.007147,-122.554769,San Rafael,39 Trellis Dr,94903,['J1772'],,2.0,Non-Networked,,,14000US06041108202,Marin County,level2,POINT (38.007147 -122.554769)
265,268,376,public,24 hours daily; guest use only,51954,P,Brisas Del Mar Inn at the Beach,200-9,34.409885,-119.69729,Santa Barbara,223 Castillo St,93101,['J1772'],,1.0,Non-Networked,,,14000US06083001206,Santa Barbara County,level2,POINT (34.409885 -119.69729)
266,269,377,public,24 hours daily,51956,P,Honda of Santa Maria,200-9,34.921309,-120.422938,Santa Maria,1735 S Bradley Rd,93455,['J1772'],,1.0,Non-Networked,,,14000US06083002014,Santa Barbara County,level2,POINT (34.921309 -120.422938)
267,270,378,public,24 hours daily; for guest use only,51959,P,Santa Ynez Band of Chumash Indians,200-8,34.606071,-120.093694,Santa Ynez,100 Via Juana Ln,93460,['J1772'],,2.0,Non-Networked,,,14000US06083001908,Santa Barbara County,level2,POINT (34.606071 -120.093694)
268,271,379,public,24 hours daily; see valet for access,51960,P,Chumash Casino Resort,200-8,34.610085,-120.086464,Santa Ynez,3400 E Highway 246,93460,['J1772'],,10.0,Non-Networked,,,14000US06083001908,Santa Barbara County,level2,POINT (34.610085 -120.086464)
269,272,380,public,24 hours daily; obtain code for use at the front desk,52096,P,Grand Vista Hotel,200-9,34.283594,-118.781459,Simi Valley,999 Enchanted Way,93065,['J1772'],,1.0,Non-Networked,,,14000US06111008502,Ventura County,level2,POINT (34.283594 -118.781459)
270,273,386,public,24 hours daily,52524,LG,City of Palm Springs - Accelerator Park,200-9,33.829433,-116.512914,Palm Springs,2901 E Alejo,92264,['J1772'],,1.0,Non-Networked,,,14000US06065044701,Riverside County,level2,POINT (33.829433 -116.512914)
271,274,387,public,24 hours daily,52525,LG,City of Palm Springs - Camelot Theatre,200-9,33.819685,-116.521241,Palm Springs,2300 E Baristo Rd,92262,['J1772'],,2.0,Non-Networked,,,14000US06065044701,Riverside County,level2,POINT (33.819685 -116.521241)
272,275,388,public,24 hours daily,52526,LG,City of Palm Springs - City Hall,GPS,33.824715,-116.511192,Palm Springs,3200 E Tahquitz Canyon Way,92264,['J1772'],,2.0,Non-Networked,,,14000US06065044701,Riverside County,level2,POINT (33.824715 -116.511192)
273,276,389,public,24 hours daily,52527,LG,City of Palm Springs - Coachella Valley Economic Partnership,GPS,33.822673,-116.51192,Palm Springs,3111 E Tahquitz Canyon Way,92264,['J1772'],,2.0,Non-Networked,,,14000US06065044701,Riverside County,level2,POINT (33.822673 -116.51192)
274,277,390,public,24 hours daily,52528,LG,City of Palm Springs - Convention Center,GPS,33.825249,-116.536722,Palm Springs,277 N Avenida Caballeros,92262,['J1772'],,4.0,Non-Networked,,,14000US06065941400,Riverside County,level2,POINT (33.825249 -116.536722)
275,278,391,public,24 hours daily,52603,LG,City of Palm Springs - Desert AIDS Project,GPS,33.843822,-116.529304,Palm Springs,1695 N Sunrise Way,92262,['J1772'],,2.0,Non-Networked,,,14000US06065044602,Riverside County,level2,POINT (33.843822 -116.529304)
276,279,392,public,24 hours daily,52604,LG,City of Palm Springs - Downtown Parking Structure,GPS,33.819689,-116.545883,Palm Springs,Indian Canyon Dr & Baristo Rd,92264,['J1772'],,2.0,Non-Networked,,,14000US06065044606,Riverside County,level2,POINT (33.819689 -116.545883)
277,280,393,public,24 hours daily,52605,LG,City of Palm Springs - Fleet Maintenance Yard,GPS,33.828745,-116.515654,Palm Springs,425 N Civic Dr,92262,['J1772'],,1.0,Non-Networked,,,14000US06065044701,Riverside County,level2,POINT (33.828745 -116.515654)
278,281,394,public,24 hours daily; pay lot,52606,LG,City of Palm Springs - International Airport,GPS,33.821773,-116.51006,Palm Springs,3400 E Tahquitz Canyon Way,92262,['J1772'],,4.0,Non-Networked,,,14000US06065941200,Riverside County,level2,POINT (33.821773 -116.51006)
279,282,395,public,24 hours daily,52607,LG,City of Palm Springs - James O Jessie Desert Highland Unity Center,200-9,33.867738,-116.552297,Palm Springs,480 Tramview Rd,92262,['J1772'],,2.0,Non-Networked,,,14000US06065044605,Riverside County,level2,POINT (33.867738 -116.552297)
280,283,396,public,24 hours daily,52608,LG,City of Palm Springs - Library,GPS,33.818721,-116.526678,Palm Springs,300 S Sunrise Way,92262,['J1772'],,1.0,Non-Networked,,,14000US06065044701,Riverside County,level2,POINT (33.818721 -116.526678)
281,284,397,public,24 hours daily,52610,LG,City of Palm Springs - Village Green,GPS,33.820689,-116.547468,Palm Springs,233 S Palm Canyon Dr,92262,['J1772'],,2.0,Non-Networked,,,14000US06065044606,Riverside County,level2,POINT (33.820689 -116.547468)
282,285,398,public,24 hours daily,52611,LG,City of Palm Springs - Visitors Center,GPS,33.858372,-116.558122,Palm Springs,Indian Canyon Dr & Tram Rd,92262,['J1772'],,2.0,Non-Networked,,,14000US06065044606,Riverside County,level2,POINT (33.858372 -116.558122)
283,286,399,public,24 hours daily,52612,LG,City of Palm Springs - Wellness Park,GPS,33.837311,-116.540856,Palm Springs,Tachevah & Via Miraleste,92262,['J1772'],,1.0,Non-Networked,,,14000US06065044602,Riverside County,level2,POINT (33.837311 -116.540856)
284,287,400,public,24 hours daily; for guest use only; see valet for access,52640,P,Resort at Squaw Creek,200-9,39.19591,-120.236254,Olympic Valley,1960 Squaw Valley Rd,96146,['J1772'],,4.0,Non-Networked,,,14000US06061022014,Placer County,level2,POINT (39.19591 -120.236254)
285,288,401,public,Dealership business hours; Ford vehicle use only,52641,P,AutoNation Ford Tustin,200-9,33.726886,-117.800108,Tustin,2 Auto Center Dr,92782,['J1772'],,1.0,Non-Networked,,,14000US06059052524,Orange County,level2,POINT (33.726886 -117.800108)
286,289,402,public,Dawn to dusk daily,52722,P,Malibu Creek State Park,200-8,34.104235,-118.711535,Calabasas,1925 Las Virgenes,91302,['J1772'],,2.0,Non-Networked,,,14000US06037800336,Los Angeles County,level2,POINT (34.104235 -118.711535)
287,290,403,public,24 hours daily,52737,LG,Solano County - County Administration Center Parking Structure,200-8,38.24922,-122.041825,Fairfield,675 Texas St,94533,['J1772'],,8.0,Non-Networked,,,14000US06095252502,Solano County,level2,POINT (38.24922 -122.041825)
288,291,404,public,24 hours daily; permit required; maximum session time of 4 hours,52748,SG,San Francisco State University,200-8,37.720848,-122.477023,San Francisco,1600 Holloway Ave,94132,['J1772'],,9.0,Non-Networked,,,14000US06075033201,San Francisco County,level2,POINT (37.720848 -122.477023)
289,292,405,public,7am-4:30pm daily,52899,LG,Western Municipal Water District,200-9,33.911161,-117.290022,Riverside,14205 Meridian Pkwy,92518,['J1772'],,2.0,Non-Networked,,,14000US06065046700,Riverside County,level2,POINT (33.911161 -117.290022)
290,293,406,public,24 hours daily,53072,,SACRAMENTO 300R-3,GPS,38.596397,-121.49862,Sacramento,300 Richards Blvd,95811,['J1772'],,2.0,ChargePoint Network,,,14000US06067005301,Sacramento County,level2,POINT (38.596397 -121.49862)
291,294,408,public,24 hours daily,53366,P,Creekside Business Park,GPS,38.9032,-121.083857,Auburn,11601 Blocker Dr,95603,['J1772'],,5.0,Non-Networked,,,14000US06061020300,Placer County,level2,POINT (38.9032 -121.083857)
292,295,409,public,24 hours daily,53373,P,University of California - Davis - Lot 49,GPS,38.533624,-121.759346,Davis,La Rue Rd and Garrod Dr,95616,['J1772'],,9.0,Non-Networked,,,14000US06113010501,Yolo County,level2,POINT (38.533624 -121.759346)
293,296,410,public,24 hours daily,53381,P,California Fresh Market,GPS,35.136076,-120.623728,Pismo Beach,555 Five Cities Dr,93449,['J1772'],,2.0,Non-Networked,,,14000US06079011705,San Luis Obispo County,level2,POINT (35.136076 -120.623728)
294,297,411,public,24 hours daily; pay lot,53383,P,Evergreen,200-9,38.57894,-121.503857,Sacramento,300 Capitol Mall,95814,"['J1772', 'NEMA1450']",,4.0,Non-Networked,,,14000US06067000800,Sacramento County,level2,POINT (38.57894 -121.503857)
295,298,412,public,24 hours daily,53406,P,El Rancho Market,200-9,34.605901,-120.101372,Solvang,2886 Mission Dr,93463,['J1772'],,2.0,Non-Networked,,,14000US06083001908,Santa Barbara County,level2,POINT (34.605901 -120.101372)
296,299,413,public,24 hours daily; for guest use only; pay parking,53408,P,Torrance Marriott - South Bay,200-8,33.835218,-118.350231,Torrance,3635 Fashion Way,90503,['J1772'],,2.0,Non-Networked,,,14000US06037650701,Los Angeles County,level2,POINT (33.835218 -118.350231)
297,300,414,public,Dealership business hours,53676,P,FIAT of Ontario,200-9,34.051442,-117.543902,Ontario,1201 Auto Center Dr,91761,['J1772'],,3.0,Non-Networked,,,14000US06071012700,San Bernardino County,level2,POINT (34.051442 -117.543902)
298,301,415,public,24 hours daily; pay lot,53677,LG,City of Pasadena - Marriott Garage,200-8,34.148874,-118.148914,Pasadena,171 N Raymond Ave,91103,['J1772'],,3.0,Non-Networked,,,14000US06037461902,Los Angeles County,level2,POINT (34.148874 -118.148914)
299,302,418,public,Dealership business hours; for customer use only,53719,P,Fairway Ford,200-9,33.887622,-117.838402,Placentia,1350 E Yorba Linda Blvd,92870,['J1772'],,1.0,Non-Networked,,,14000US06059021810,Orange County,level2,POINT (33.887622 -117.838402)
300,303,419,public,6am-12am daily,53723,P,Alameda South Shore Center,GPS,37.756871,-122.253088,Alameda,2210 South Shore Center,94501,['J1772'],,2.0,Volta,,,14000US06001428400,Alameda County,level2,POINT (37.756871 -122.253088)
301,304,422,public,Dealership business hours,53900,P,Honda of Escondido,200-9,33.116897,-117.10593,Escondido,1700 Auto Park Way,92029,['J1772'],,1.0,Non-Networked,,,14000US06073020313,San Diego County,level2,POINT (33.116897 -117.10593)
302,305,423,public,Dealership business hours,53901,P,Mid-City Motor World,200-9,40.807267,-124.114418,Eureka,4800 N US Highway 101,95503,['J1772'],,1.0,Non-Networked,,,14000US06023000800,Humboldt County,level2,POINT (40.807267 -124.114418)
303,306,424,public,Dealership business hours,53903,P,Gosch Ford Hemet,200-9,33.737588,-117.030106,Hemet,150 Carriage Cir,92545,['J1772'],,1.0,Non-Networked,,,14000US06065043519,Riverside County,level2,POINT (33.737588 -117.030106)
304,307,426,public,24 hours daily; Also accepts Mobile Now,53907,P,16800 Building,200-9,33.700072,-117.842978,Irvine,16800 Aston St,92606,['J1772'],,2.0,Non-Networked,,,14000US06059075516,Orange County,level2,POINT (33.700072 -117.842978)
305,308,428,public,Dealership business hours; see receptionist for access,53909,P,Mossy Honda of Lemon Grove,200-8,32.744765,-117.030389,Lemon Grove,3615 Lemon Grove Ave,91945,['J1772'],,1.0,Non-Networked,,,14000US06073014400,San Diego County,level2,POINT (32.744765 -117.030389)
306,309,429,public,24 hours daily; parking permit required for use,53910,P,California State Polytechnic University - Parking Structure 2,GPS,34.051634,-117.820001,Pomona,3801 W Temple Ave,91768,['J1772'],,24.0,Non-Networked,,,14000US06037402404,Los Angeles County,level2,POINT (34.051634 -117.820001)
307,310,432,public,Dealership business hours; Ford vehicle use only,53915,P,Mossy Ford,200-9,32.80377,-117.218255,San Diego,4570 Mission Bay Dr,92109,['J1772'],,2.0,Non-Networked,,,14000US06073007800,San Diego County,level2,POINT (32.80377 -117.218255)
308,311,433,public,24 hours daily,53917,P,Alameda County Electrical Joint Apprenticeship Training Committee,200-9,37.692678,-122.171053,San Leandro,14600 Catalina St,94577,['J1772'],,2.0,Non-Networked,,SOLAR,14000US06001433400,Alameda County,level2,POINT (37.692678 -122.171053)
309,312,436,public,Dealership business hours,53921,P,Toyota of Santa Maria,200-9,34.922993,-120.423064,Santa Maria,700 E Betteravia Rd,93455,['J1772'],,1.0,Non-Networked,,,14000US06083002014,Santa Barbara County,level2,POINT (34.922993 -120.423064)
310,313,438,public,Dealership business hours; for customer use only,53923,P,DCH Ford,GPS,34.1629744,-118.8282546,Thousand Oaks,3810 Thousand Oaks Blvd,91362,['J1772'],,1.0,Non-Networked,,,14000US06111007202,Ventura County,level2,POINT (34.1629744 -118.8282546)
311,314,439,public,24 hours daily,53927,LG,Solano County - Public Health,200-9,38.361235,-121.975962,Vacaville,1119 E Monte Vista,95688,['J1772'],,2.0,Non-Networked,,,14000US06095253205,Solano County,level2,POINT (38.361235 -121.975962)
312,315,442,public,Dealership business hours; for Ford vehicles only,53930,P,North County Ford,200-9,33.196108,-117.250815,Vista,450 W Vista Way,92083,['J1772'],,2.0,Non-Networked,,,14000US06073019702,San Diego County,level2,POINT (33.196108 -117.250815)
313,316,444,public,24 hours daily,55814,,GLENDALE PLAZA ST1,GPS,34.155502,-118.258897,Glendale,655 N Central Ave,91203,['J1772'],,2.0,ChargePoint Network,,,14000US06037301801,Los Angeles County,level2,POINT (34.155502 -118.258897)
314,317,445,public,Dealership business hours,60081,P,Orange Coast Fiat,200-9,33.664351,-117.918567,Costa Mesa,2524 Harbor Blvd,92626,['J1772'],,4.0,Non-Networked,,,14000US06059063905,Orange County,level2,POINT (33.664351 -117.918567)
315,318,448,public,"7am-5pm M-Th, 7am-12pm F, 8am-1pm Sat; permit required for use",60125,SG,University of California Los Angeles - Parking Structure 4,GPS,34.072975,-118.444801,Los Angeles,221 Westwood Plaza,90077,['CHADEMO'],1.0,,Non-Networked,,,14000US06037265301,Los Angeles County,dc,POINT (34.072975 -118.444801)
316,319,449,public,"For UCLA staff, students and visitors",60128,SG,University of California Los Angeles - Parking Structure 8,200-8,34.068375,-118.445041,Los Angeles,555 Westwood Plaza,90095,['J1772'],,4.0,Non-Networked,,,14000US06037265301,Los Angeles County,level2,POINT (34.068375 -118.445041)
317,320,451,public,Dealership business hours,60179,P,John L Sullivan Chevrolet,200-9,38.749055,-121.254379,Roseville,350 Automall Dr,95661,['J1772'],,6.0,Non-Networked,,SOLAR,14000US06061020717,Placer County,level2,POINT (38.749055 -121.254379)
318,321,452,public,Dealership business hours; for customer use only,60180,P,Frank Toyota,200-9,32.661406,-117.102032,National City,2400 National City Blvd,91950,"['J1772', 'NEMA520']",,1.0,Non-Networked,,,14000US06073021900,San Diego County,level2,POINT (32.661406 -117.102032)
319,322,454,public,24 hours daily,60194,P,Pechanga Resort and Casino,GPS,33.458106,-117.107647,Temecula,45000 Pechanga Pkwy,92592,['J1772'],,10.0,Non-Networked,,,14000US06065043254,Riverside County,level2,POINT (33.458106 -117.107647)
320,323,461,public,Dealership business hours; Drivers must bring their own J1772 cordset for Level 1 charging,60448,P,Mountain View Chevrolet,200-9,34.107363,-117.667072,Upland,1079 W Foothill Blvd,91786,['NEMA520'],,,Non-Networked,,,14000US06071000818,San Bernardino County,dc,POINT (34.107363 -117.667072)
321,324,462,public,24 hours daily,60677,,ORACLE PLS 5805OWENS-04,GPS,37.700176,-121.892147,Pleasanton,5805 Owens Dr,94588,['J1772'],,2.0,ChargePoint Network,,,14000US06001450743,Alameda County,level2,POINT (37.700176 -121.892147)
322,325,463,public,24 hours daily,60720,LG,City of San Dimas - Maintenance Yard,GPS,34.104155,-117.803402,San Dimas,301 S Walnut Ave,91773,['J1772'],,3.0,Non-Networked,1 SP Inductive,,14000US06037400304,Los Angeles County,level2,POINT (34.104155 -117.803402)
323,326,464,public,24 hours daily,60857,T,Sacramento Municipal Utility District,GPS,38.553131,-121.434296,Sacramento,6151 S St,95817,['J1772'],,19.0,Non-Networked,,SOLAR,14000US06067001701,Sacramento County,level2,POINT (38.553131 -121.434296)
324,327,465,public,8am-5pm daily; Drivers must bring their own J1772 cordset for Level 1 charging,60871,P,Los Banos KOA,200-8,37.055147,-121.015402,Gustine,28485 Gonzaga Rd,95322,['NEMA1450'],,,Non-Networked,,,14000US06047002100,Merced County,dc,POINT (37.055147 -121.015402)
325,328,467,public,24 hours daily; for guest use only; see front desk for access,61528,P,San Simeon Lodge,200-9,35.61477,-121.145461,San Simeon,9520 Castillo Dr,93452,['J1772'],,1.0,Non-Networked,,,14000US06079013000,San Luis Obispo County,level2,POINT (35.61477 -121.145461)
326,329,468,public,24 hours daily; free for hotel and restaurant guests,61532,P,Stonehaus at Westlake Village Inn,200-8,34.148044,-118.818336,Westlake Village,32039 Agoura Rd,91361,['J1772'],,1.0,Non-Networked,,,14000US06037800325,Los Angeles County,level2,POINT (34.148044 -118.818336)
327,330,470,public,9am-5pm daily; reservation required for use,61767,P,Fern River Resort,200-9,37.039479,-122.068751,Felton,5250 Highway 9,95018,['J1772'],,1.0,Non-Networked,,,14000US06087120700,Santa Cruz County,level2,POINT (37.039479 -122.068751)
328,331,471,public,Dealership business hours,61791,P,Mossy Nissan,200-9,32.595542,-117.02529,Chula Vista,1885 Auto Park Pl,91911,['J1772'],,1.0,Non-Networked,,,14000US06073013317,San Diego County,level2,POINT (32.595542 -117.02529)
329,332,473,public,24 hours daily; complimentary for hotel guests,61814,P,Best Western Plus,200-8,36.764142,-119.718394,Fresno,1551 N Peach Ave,93727,['J1772'],,2.0,Non-Networked,,,14000US06019002906,Fresno County,level2,POINT (36.764142 -119.718394)
330,333,474,public,Lot business hours; pay lot,61815,P,California State University - Fresno,GPS,36.810694,-119.741239,Fresno,5010 N Woodrow Ave,93710,"['CHADEMO', 'J1772']",2.0,4.0,Non-Networked,,,14000US06019005408,Fresno County,both,POINT (36.810694 -119.741239)
331,334,476,public,,61874,,Enterprise Rent-A-Car Ontario,GPS,34.06729,-117.60417,Ontario,2131 Convention Center Way,91764,['J1772'],,2.0,OpConnect,,,14000US06071001600,San Bernardino County,level2,POINT (34.06729 -117.60417)
332,335,477,public,24 hours daily,62045,P,Trillium - Yolo County Transportation District,200-9,38.679225,-121.753508,Woodland,350 Industrial Way,95776,['J1772'],,2.0,Non-Networked,,,14000US06113010800,Yolo County,level2,POINT (38.679225 -121.753508)
333,336,481,public,24 hours daily,62072,FG,Muir Woods,GPS,37.892576,-122.571976,Mill Valley,1 Muir Woods Rd,94941,['J1772'],,2.0,Non-Networked,,,14000US06041131100,Marin County,level2,POINT (37.892576 -122.571976)
334,337,482,public,11:30am-5:30pm F-Sun; call for appointment or after hours use; free for customer use; Drivers must bring their own J1772 cordset for Level 1 charging,62463,P,Saluti Cellars Winery,GPS,38.633369,-120.62423,Somerset,7505 Grizzly Flat Rd,95684,['NEMA1450'],,,Non-Networked,,,14000US06017031408,El Dorado County,dc,POINT (38.633369 -120.62423)
335,338,483,public,8am-5pm Tuesday-Saturday,62602,P,Independent Repair,200-9,33.872549,-118.360193,Redondo Beach,2720 Artesia Blvd,90278,['J1772'],,1.0,Non-Networked,,,14000US06037620601,Los Angeles County,level2,POINT (33.872549 -118.360193)
336,339,486,public,24 hours daily,62833,P,Extra Space Storage,200-9,37.873525,-122.304802,Berkeley,601 Cedar St,94710,['J1772'],,1.0,Non-Networked,,,14000US06001422000,Alameda County,level2,POINT (37.873525 -122.304802)
337,340,487,public,24 hours daily; guest use only,62976,P,Best Western Plus - Black Oak,200-9,35.641205,-120.687141,Paso Robles,1135 24th St,93446,['J1772'],,1.0,Non-Networked,,,14000US06079010104,San Luis Obispo County,level2,POINT (35.641205 -120.687141)
338,341,488,public,6am-12am daily; overnight parking pass given to backcountry camping permit holders is required for 24 hour use,62978,FG,Point Reyes National Seashore - Bear Valley Visitor Center,GPS,38.040933,-122.800044,Point Reyes Station,1 Bear Valley Rd,94956,['J1772'],,6.0,Non-Networked,,SOLAR,14000US06041132200,Marin County,level2,POINT (38.040933 -122.800044)
339,342,489,public,24 hours daily; Also accepts Paypal,62980,P,Volkswagen Group of America,GPS,37.5335013,-122.2723743,Belmont,500 Clipper Dr,94002,['J1772'],,8.0,EV Connect,,,14000US06081608600,San Mateo County,level2,POINT (37.5335013 -122.2723743)
340,343,490,public,"24 hours daily; keypad activated, instructions on EVSE",63040,LG,Los Angeles County Sheriff - Lost Hills,GPS,34.137359,-118.713791,Agoura,27050 Agoura Rd,91301,['J1772'],,4.0,POWERFLEX,,,14000US06037800337,Los Angeles County,level2,POINT (34.137359 -118.713791)
341,344,493,public,24 hours daily,63044,LG,Rancho Los Amigos Hospital,GPS,33.93015941726961,-118.1594074,Downey,7601 E Imperial Hwy,90242,['J1772'],,25.0,POWERFLEX,,,14000US06037980012,Los Angeles County,level2,POINT (33.93015941726961 -118.1594074)
342,345,494,public,7am-4pm M-F,63045,LG,Los Angeles County - Internal Services Mira Loma Shop,200-8,34.699161,-118.236662,Lancaster,45000 N 60th St W,93536,['J1772'],,2.0,POWERFLEX,,,14000US06037901216,Los Angeles County,level2,POINT (34.699161 -118.236662)
343,346,495,public,Business hours; use buzzer to summon security for access to parking lot,63046,LG,Los Angeles County - High Desert Regional Health Center,GPS,34.706156,-118.1248,Lancaster,335 E Avenue I,93535,['J1772'],,2.0,Non-Networked,,,14000US06037900602,Los Angeles County,level2,POINT (34.706156 -118.1248)
344,347,496,public,"Garage business hours; pay lot; keypad activated, instructions on EVSE",63047,LG,Walt Disney Concert Hall,200-8,34.055505,-118.248852,Los Angeles,111 S Grand Ave,90012,['J1772'],,3.0,Non-Networked,,,14000US06037207400,Los Angeles County,level2,POINT (34.055505 -118.248852)
345,348,499,public,"Garage business hours; pay lot; keypad activated, instructions on EVSE",63050,LG,Los Angeles County - Hall of Records Lot 10,GPS,34.055641,-118.244271,Los Angeles,227 N Broadway,90012,['J1772'],,4.0,Non-Networked,,,14000US06037207400,Los Angeles County,level2,POINT (34.055641 -118.244271)
346,349,500,public,"Garage business hours; pay lot; keypad activated, instructions on EVSE",63051,LG,Music Center Parking - Level 3,GPS,34.057657,-118.24789,Los Angeles,135 N Grand Ave,90012,['J1772'],,3.0,Non-Networked,,,14000US06037207400,Los Angeles County,level2,POINT (34.057657 -118.24789)
347,350,501,public,"Garage business hours; pay lot; keypad activated, instructions on EVSE",63052,LG,Department of Health Services Administration,GPS,34.060148,-118.250747,Los Angeles,313 N Figueroa,90012,"['CHADEMO', 'J1772']",3.0,40.0,POWERFLEX,,,14000US06037207400,Los Angeles County,both,POINT (34.060148 -118.250747)
348,351,506,public,24 hours daily,63057,LG,Los Angeles County - Internal Services Department Headquarters,GPS,34.050994,-118.174908,Los Angeles,1102 N Eastern Ave,90063,['J1772'],,4.0,POWERFLEX,,,14000US06037530603,Los Angeles County,level2,POINT (34.050994 -118.174908)
349,352,508,public,"Garage business hours; pay lot; keypad activated, instructions on EVSE",63059,LG,Los Angeles County Sheriff - Century Station,200-8,33.928019,-118.225363,Lynwood,11703 S Alameda,90059,['J1772'],,1.0,Non-Networked,,,14000US06037540501,Los Angeles County,level2,POINT (33.928019 -118.225363)
350,353,509,public,8am-5pm M-F,63060,LG,Los Angeles County Sheriff - Headquarters,200-9,34.060685,-118.168137,Monterey Park,4700 Ramona Blvd,91754,['J1772'],,2.0,POWERFLEX,,,14000US06037482001,Los Angeles County,level2,POINT (34.060685 -118.168137)
351,354,510,public,Garage business hours; reserved primarily for employee use; notify attendant before charging,63061,LG,Los Angeles County - Registrar-Recorder - County Clerk,200-9,33.914865,-118.066813,Norwalk,12400 E Imperial Hwy,90650,['J1772'],,3.0,POWERFLEX,,,14000US06037552301,Los Angeles County,level2,POINT (33.914865 -118.066813)
352,355,511,public,"24 hours daily; keypad activated, instructions on EVSE",63062,LG,Los Angeles County Sheriff - San Dimas Station,GPS,34.105077,-117.802207,San Dimas,270 S Walnut Ave,91773,['J1772'],,5.0,POWERFLEX,,,14000US06037400304,Los Angeles County,level2,POINT (34.105077 -117.802207)
353,356,512,public,"24 hours daily; keypad activated, instructions on EVSE",63063,LG,Los Angeles County Sheriff - Santa Clarita Station,GPS,34.416259,-118.551228,Santa Clarita,23740 Magic Mountain Pkwy,91355,['J1772'],,1.0,POWERFLEX,,,14000US06037920329,Los Angeles County,level2,POINT (34.416259 -118.551228)
354,357,513,public,24 hours daily,63064,LG,Los Angeles County Sheriff - Temple City Station,GPS,34.103101,-118.07617,Temple City,8838 Las Tunas Dr,91780,['J1772'],,2.0,POWERFLEX,,,14000US06037481201,Los Angeles County,level2,POINT (34.103101 -118.07617)
355,358,514,public,24 hours daily,63065,LG,Los Angeles County Sheriff - Walnut Station,GPS,34.028667,-117.833689,Walnut,21695 Valley Blvd,91789,['J1772'],,2.0,POWERFLEX,,,14000US06037403403,Los Angeles County,level2,POINT (34.028667 -117.833689)
356,359,516,public,24 hours daily; pay lot,63067,LG,City of Pasadena - Playhouse Theatre Lot,GPS,34.145121,-118.138228,Pasadena,44 S Madison Ave,91101,['J1772'],,2.0,Non-Networked,,,14000US06037463601,Los Angeles County,level2,POINT (34.145121 -118.138228)
357,360,517,public,24 hours daily; pay lot,63068,LG,City of Pasadena - Marengo Garage,GPS,34.144703,-118.146957,Pasadena,155 E Green St,91101,['J1772'],,5.0,Non-Networked,,,14000US06037463602,Los Angeles County,level2,POINT (34.144703 -118.146957)
358,361,518,public,24 hours daily,63094,P,University of California Davis - Institute of Transportation Studies,GPS,38.542219,-121.771883,Davis,1715 Tilia St,95616,['J1772'],,1.0,Non-Networked,,,14000US06113010501,Yolo County,level2,POINT (38.542219 -121.771883)
359,362,519,public,24 hours daily; pay lot,63168,P,Los Angeles Metro - Sierra Madre Villa Station,200-8,34.14883,-118.079622,Pasadena,149 N Halstead St,91107,['J1772'],,4.0,EVGATEWAY,,,14000US06037463000,Los Angeles County,level2,POINT (34.14883 -118.079622)
360,363,520,public,24 hours daily; pay lot,63169,P,Los Angeles Metro - Union Station,200-8,34.056077,-118.232293,Los Angeles,801 N Vignes St,90012,['J1772'],,10.0,Non-Networked,,,14000US06037206020,Los Angeles County,level2,POINT (34.056077 -118.232293)
361,364,521,public,24 hours daily; pay lot,63170,P,Los Angeles Metro - Willow Street Station,200-8,33.806509,-118.189823,Long Beach,2750 W American Ave,90806,['J1772'],,4.0,EVGATEWAY,,,14000US06037572202,Los Angeles County,level2,POINT (33.806509 -118.189823)
362,365,522,public,24 hours daily; pay lot,63171,P,Los Angeles Metro - Universal and Studio City Station,200-8,34.139746,-118.361851,Studio City,3913 Lankershim Blvd,91604,['J1772'],,4.0,EVGATEWAY,,,14000US06037143605,Los Angeles County,level2,POINT (34.139746 -118.361851)
363,366,523,public,24 hours daily; pay lot,63172,P,Los Angeles Metro - El Segundo Station,200-8,33.916294,-118.385869,El Segundo,2226 E El Segundo Blvd,90245,['J1772'],,4.0,EVGATEWAY,,,14000US06037980013,Los Angeles County,level2,POINT (33.916294 -118.385869)
364,367,524,public,11:30am-8:30pm daily; guests only,63181,P,Victorian Inn and VI Restaurant,200-9,40.575434,-124.264839,Ferndale,400 Ocean Ave,95536,['J1772'],,1.0,Non-Networked,,,14000US06023011200,Humboldt County,level2,POINT (40.575434 -124.264839)
365,368,525,public,24 hours daily; call ahead to make appointment,63371,P,Coast Guard House Historic Inn & Cottages,GPS,38.9143349,-123.7097718,Point Arena,695 Arena Cove,95468,['J1772'],,1.0,Non-Networked,,,14000US06045011102,Mendocino County,level2,POINT (38.9143349 -123.7097718)
366,369,526,public,24 hours daily,63419,,PALO ALTO CA MPL #4,GPS,37.422105,-122.113507,Palo Alto,3700 Middlefield Rd,94303,['J1772'],,1.0,ChargePoint Network,,,14000US06085510803,Santa Clara County,level2,POINT (37.422105 -122.113507)
367,370,527,public,Park business hours,63471,SG,Will Rogers State Historic Park,GPS,34.054983,-118.512636,Los Angeles,1501 Will Rogers State Park Rd,90272,['J1772'],,2.0,Non-Networked,,,14000US06037980019,Los Angeles County,level2,POINT (34.054983 -118.512636)
368,371,529,public,10am-4:30pm daily,63477,P,Fort Ross State Historic Park,GPS,38.5159746604047,-123.2467089497376,Jenner,19005 Coast Hwy,95450,['J1772'],,2.0,Non-Networked,,,14000US06097154307,Sonoma County,level2,POINT (38.5159746604047 -123.2467089497376)
369,372,531,public,Dealership business hours,63653,P,Central Ford,200-9,33.950115,-118.166578,South Gate,5645 Firestone Blvd,90280,['J1772'],,2.0,Non-Networked,,,14000US06037536102,Los Angeles County,level2,POINT (33.950115 -118.166578)
370,373,532,public,9:30am-5pm daily,63654,P,Shenandoah Vineyards Winery,GPS,38.53691,-120.79411,Plymouth,12300 Steiner Rd,95669,['J1772'],,1.0,Non-Networked,,SOLAR,14000US06005000202,Amador County,level2,POINT (38.53691 -120.79411)
371,374,534,public,Vineyard business hours; for guest use only; see front desk for access,63730,P,Greenwood Ridge Vineyards,200-9,39.0979,-123.484338,Philo,5501 Highway 128,95466,"['CHADEMO', 'J1772']",1.0,1.0,Non-Networked,,,14000US06045011200,Mendocino County,both,POINT (39.0979 -123.484338)
372,375,535,public,"24 hours daily; keypad activated, instructions on EVSE",63734,LG,Los Angeles County - Marina Lot 77,200-8,33.978488,-118.442785,Marina Del Rey,13560 Mindinao Way,90292,['J1772'],,2.0,POWERFLEX,,,14000US06037702900,Los Angeles County,level2,POINT (33.978488 -118.442785)
373,376,537,public,24 hours daily,63737,LG,Los Angeles County - Martin Luther King Hospital - Garage C,GPS,33.923781,-118.240951,Los Angeles,1720 E 120th St,90059,['J1772'],,37.0,POWERFLEX,,,14000US06037540700,Los Angeles County,level2,POINT (33.923781 -118.240951)
374,377,538,public,"24 hours daily; keypad activated, instructions on EVSE",63738,LG,Los Angeles County - Olive View UCLA Medical Center,200-9,34.325912,-118.445513,Sylmar,14445 Olive View Dr,91342,['J1772'],,2.0,Non-Networked,,,14000US06037106010,Los Angeles County,level2,POINT (34.325912 -118.445513)
375,378,539,public,"Business hours; keypad activated, instructions on EVSE",63739,LG,Los Angeles County - Probation Department,GPS,33.916855,-118.133385,Downey,9150 E Imperial Hwy,90242,['J1772'],,41.0,POWERFLEX,,,14000US06037551801,Los Angeles County,level2,POINT (33.916855 -118.133385)
376,379,541,public,Dealership business hours,63808,P,Salinas Valley Ford,200-8,36.71552,-121.662804,Salinas,1100 Auto Center Cir,93907,['J1772'],,4.0,Non-Networked,,,14000US06053010504,Monterey County,level2,POINT (36.71552 -121.662804)
377,380,542,public,6am-12am daily,63877,P,Pacific Place Garage,GPS,37.785064,-122.405175,San Francisco,22 4th St,94103,['J1772'],,1.0,Volta,,,14000US06075017602,San Francisco County,level2,POINT (37.785064 -122.405175)
378,381,543,public,24 hours daily,63880,P,JPMorgan Parking Garage,200-9,37.788865,-122.399359,San Francisco,560 Mission St,94105,['J1772'],,2.0,Non-Networked,,,14000US06075061501,San Francisco County,level2,POINT (37.788865 -122.399359)
379,382,544,public,6am-12am daily,63881,P,Stonestown Galleria,GPS,37.727859,-122.476309,San Francisco,3251 20th Ave,94132,"['CHADEMO', 'J1772', 'J1772COMBO']",1.0,2.0,Volta,,,14000US06075033201,San Francisco County,both,POINT (37.727859 -122.476309)
380,383,545,public,6am-12am daily,63882,P,Trader Joe's,GPS,37.726656,-122.475999,San Francisco,265 Winston Dr,94132,['J1772'],,2.0,Volta,,,14000US06075033201,San Francisco County,level2,POINT (37.726656 -122.475999)
381,384,547,public,24 hours daily; permit required or day pass available for purchase,64416,P,California State University - Channel Islands,GPS,34.16386621848126,-119.0417562473297,Camarillo,1 University Dr,93012,['J1772'],,2.0,Non-Networked,,,14000US06111005700,Ventura County,level2,POINT (34.16386621848126 -119.0417562473297)
382,385,548,public,24 hours daily; Drivers must bring their own J1772 cordset for Level 1 charging,64559,P,Butte College - Chico,GPS,39.717216,-121.801107,Chico,2320 Forest Ave,95928,"['J1772', 'NEMA520']",,1.0,eVgo Network,,SOLAR,14000US06007000903,Butte County,level2,POINT (39.717216 -121.801107)
383,386,549,public,24 hours daily,64697,LG,City of Auburn,GPS,38.89702,-121.074405,Auburn,1225 Lincoln Way,95603,['J1772'],,1.0,Non-Networked,,,14000US06061020401,Placer County,level2,POINT (38.89702 -121.074405)
384,387,550,public,24 hours daily,64700,LG,City of Auburn - Train Station,GPS,38.902182,-121.083175,Auburn,11500 Blocker Dr,95603,['J1772'],,1.0,Non-Networked,,,14000US06061020300,Placer County,level2,POINT (38.902182 -121.083175)
385,388,552,public,7am-7pm M-Sat,64775,T,Extra Space Storage,GPS,37.749068,-122.402416,San Francisco,2501 Cesar Chavez St,94124,['J1772'],,1.0,Non-Networked,,,14000US06075980900,San Francisco County,level2,POINT (37.749068 -122.402416)
386,389,553,public,6am-10pm daily,64778,T,Extra Space Storage,GPS,34.1049,-118.326458,Los Angeles,1860 Vine St,90028,['J1772'],,1.0,Non-Networked,,,14000US06037191000,Los Angeles County,level2,POINT (34.1049 -118.326458)
